lat,lon,name,price,area
37.5906900199854,126.997715424817,송림아마레스아파트,16750.0,75.62
37.5751372942865,127.004044861769,CS타워,46000.0,22.17
37.588559805649,126.997822939006,리치캐슬아파트,44000.0,64.68
37.5780863495289,127.021461786317,동문(비동/씨동)(494-0),54500.0,59.94
37.6068480464065,126.957963763608,포시즌,160000.0,98.26
37.6074383271574,126.970249130338,노블레스빌,57000.0,241.55
37.5761445658622,126.957925898536,무악다온채,11950.0,64.12
37.5737164709797,127.022719893302,익성씨티하임,102000.0,15.76
37.6085203551485,126.974203406118,크래스빌,83200.0,175.81
37.5727752598236,126.973257166628,세종로대우,120000.0,66.96
37.5874603273576,126.997995407846,렉스빌,102500.0,135.79
37.5779927812929,127.014696141319,창신이수,16900.0,120.84
37.5732400524296,127.022100203456,에비뉴청계Ⅰ,59000.0,16.01
37.6090364727392,126.956263487952,마운틴뷰,143000.0,74.82
37.5757916307873,126.9699712435,신동아블루아광화문의꿈,44300.0,108.95
37.5781958159533,127.01000066213,MID그린(1동),58500.0,59.55
37.5922473334639,126.964034487443,프라임캐슬(케이빌라트),96000.0,88.89
37.5753171996632,127.004674395734,힐스테이트창경궁,16000.0,76.83
37.5905162048674,126.99709211858,방산아파트,35500.0,57.1
37.5750964069721,126.981224701828,로얄팰리스스위트,109000.0,39.57
37.6096871387295,126.975919729895,엘리시아,27000.0,206.22
37.5727229945432,126.962614055939,대성아파트,82000.0,30.28
37.5713383634284,126.973705262923,롯데미도파광화문빌딩,10550.0,93.36
37.5734457874911,127.02237715289,종로동광모닝스카이,126000.0,15.855
37.5738517068991,127.016177810477,롯데캐슬천지인,79500.0,111.73
37.5713508933218,126.972934723706,신문로맨션,61000.0,81.28
37.5881837465918,127.001066673,혜화훼미리,43000.0,61.38
37.5779534469666,127.010018969316,MID그린(3동),158000.0,58.91
37.6082143705206,126.973755821661,벽산블루밍평창힐스,70000.0,150.83
37.6070004694426,126.967600127567,밀레니엄,20000.0,83.7
37.6047043115562,126.963630877352,갑을아파트,62500.0,32.54
37.5721312045136,127.020567845963,숭인상가,194000.0,78.75
37.5726207759088,126.972245219787,경희궁의아침4단지,44700.0,124.17
37.5754051278289,127.009368613074,유성,11500.0,59.85
37.5724071549574,127.016729343206,삼전솔하임2차,59500.0,16.67
37.5946343238529,126.964011031835,부암스카이뷰,170000.0,81.08
37.5741702549538,126.97054356305,경희궁파크팰리스,255000.0,103.77
37.573660668544,126.972093823848,경희궁의아침3단지,13000.0,174.55
37.571352181503,127.016717108303,삼전솔하임4차,37800.0,15.09
37.5765134678199,127.0200141192,도시그린빌라,22000.0,58.79
37.5810048174876,126.97082876877,효자,232000.0,61.49
37.6099791717614,126.977399664316,롯데캐슬로잔,50000.0,219.775
37.5607801747959,127.000688822151,충무,210000.0,54.18
37.5538334378845,126.975790250995,남산트라팰리스,26500.0,148.47
37.5698929310606,127.020688349332,청계리버팰리스B,140000.0,25.5
37.559494681597,127.007258086888,장충레지던스,71000.0,156.08
37.561044379755,127.015749929916,청구드림,35500.0,84.94
37.5518503910487,127.006512700611,명경,72000.0,59.22
37.5601165654821,127.011578357047,란스미어,12000.0,83.87
37.559256579134,127.001671768784,장충,390000.0,31.24
37.5491436025733,127.004825079267,남산FORESTHOUSE,21900.0,177.79
37.5513921722803,127.005965157696,(432-904),14000.0,56.66
37.5510618710276,127.005870976655,인성아트빌,71000.0,59.6
37.5550177138767,126.967221788694,서울역디오빌,23000.0,56.66
37.5677164459151,127.016349553927,동대문솔하임,28000.0,19.67
37.5557105820571,126.981848061188,별장,53000.0,38.71
37.5631527459053,126.969654984929,바비엥3,20000.0,53.63
37.5595875821395,126.967257249333,성요셉,88000.0,41.32
37.566708034837,127.022477348128,황학동코아루,30600.0,84.96
37.5568692021103,126.980331228342,이지-빌,35000.0,47.88
37.5702355727167,127.0212346135,골드캐슬Ⅲ,30000.0,32.75
37.5696874945972,127.020742512867,청계리버팰리스A,98500.0,26.35
37.562402711937,126.995939188779,진양상가,50000.0,107.9
37.5562258738598,126.98252007976,삼풍,33000.0,66.16
37.5633219772152,126.999468255601,이지마루충무로,25000.0,28.43
37.5515272638274,127.005296009443,동산,68500.0,54.95
37.5488702757504,127.006001621664,프라임1,72000.0,82.17
37.5672856996586,126.970342303639,정동,20300.0,46.26
37.5633835164692,127.000001584595,충무로엘크루메크로시티2차,95000.0,22.75
37.5679940708271,126.99307715654,힐스테이트세운센트럴1단지,25800.0,49.4486
37.5613995125221,126.998504521455,충무로헤센스마트,21900.0,21.04
37.5509168303169,127.00545349403,신신(1차),144500.0,38.93
37.5494498739986,127.007787174305,남산정은스카이,73000.0,143.049
37.5639596860601,127.017378274867,하이,28450.0,80.2
37.5575593766319,127.016022291395,청구103동,39700.0,41.16
37.5637577158708,126.99580566902,인현상가/신성아파트,230000.0,42.31
37.5594031619007,126.983218672682,쌍용남산플래티넘,20000.0,158.97
37.5652397406613,127.001405231149,오렌지카운티을지로,145000.0,12.43
37.5550897722338,126.965563662247,서울역한라비발디센트럴,87500.0,84.9728
37.5582562719927,126.981925536214,남산롯데캐슬아이리스,37000.0,40.9
37.5677197822002,127.021404705916,위너빌(Winnervill),102000.0,28.55
37.5606358272505,126.968341179709,브라운스톤서울,99000.0,84.878
37.5592654596607,127.016990338292,탑힐,93000.0,54.75
37.5680483704991,126.994184286586,힐스테이트세운센트럴2단지,157800.0,49.9902
37.5635913526827,126.97037127234,덕수궁롯데캐슬,63000.0,82.3212
37.5480424320662,127.00611980975,도현블랑빌,40500.0,84.84
37.5381419180765,127.005525769768,한남하우스,145000.0,60.63
37.5200740016953,126.969441335164,미주B,77000.0,149.09
37.5512636713244,126.975211553869,뉴후암,93000.0,69.42
37.5424968602375,126.964300661846,태원팰리스,75000.0,119.82
37.5372598680856,126.956698964812,삼성하이츠,136000.0,84.39
37.5480240758718,126.978123496232,행남그랜드,142000.0,149.71
37.5377777996132,126.968813728954,용산KCC웰츠타워,117500.0,84.68
37.5297194669812,127.008332127853,리버탑,240000.0,59.57
37.5213248912321,126.964391746835,빌라맨션,290000.0,229.75
37.5350812105415,126.996635479251,메이(124-12),109000.0,164.76
37.5486770960956,126.973600288664,두리파크빌,165000.0,69.26
37.5322146493409,126.969810417481,벽산메가트리움,164000.0,84.97
37.5391384179097,127.003281312445,한남파라곤,330000.0,82.624
37.5345512509341,127.010750957657,형우베스트빌3차,45000.0,237.05
37.5350861954377,126.997907654223,현대안성타워,96500.0,30.24
37.5408405314683,126.960017544465,아이딜,129000.0,79.06
37.5303376860557,127.007715042965,한남동동원베네스트,105000.0,76.07
37.5333282140932,126.973246593781,삼각아파트,135000.0,43.64
37.5386874768496,126.970318445052,이안용산프리미어,90000.0,84.98
37.5327019212766,126.954166947697,풍전,144000.0,67.04
37.533656085545,126.951471246033,한강수,154000.0,140.88
37.5415238989183,126.966551159331,로얄카운티-2,143000.0,133.35
37.5486022437552,126.979101847781,화인,145000.0,143.25
37.5379052490991,126.967983178091,리첸시아용산B,170000.0,84.98
37.5190183972899,126.980020590419,이촌코오롱(B),90000.0,59.82
37.5426325782396,126.963506256197,베르체,92500.0,105.03
37.5492101060733,126.978868899876,명남아띠팰리스,16275.0,68.61
37.536705437867,126.969538303699,프라임펠리스,365000.0,13.69
37.5228212286831,126.998496015642,PRIMAVERAVILL,80000.0,155.8
37.5418553659449,126.963183696919,아인하우스,85000.0,66.78
37.5329064373609,127.004213646558,태성1,340000.0,59.95
37.5242745211479,126.970684689419,용산파크타워(24-0),410000.0,131.53
37.5261585854458,126.969883111317,시티파크(2단지),250000.0,184.51
37.5342584145129,127.010872655692,트윈빌비동,37000.0,135.78
37.5392435082897,126.967338336285,시온캐슬용산,330000.0,19.33
37.5251113403049,126.969145035914,용산시티파크(1단지),45000.0,146.53
37.5498213338045,126.977833268946,신후암,1700000.0,61.85
37.5314451625387,127.011467348354,파르크한남,24400.0,268.95
37.5243970537181,126.966281308179,시티하우스,78000.0,19.89
37.5333606102842,126.960835806269,원효전자상가,75000.0,55.77
37.5383471132315,126.969048046629,삼라마이다스빌2,161500.0,72.48
37.5382765617916,126.967363197885,리첸시아용산A,290000.0,122.54
37.5371756077648,126.972984984131,대우월드마크용산,150000.0,166.37
37.5201637323928,126.971946115671,리버뷰,204000.0,138.94
37.533578250287,127.008679105878,리버티하우스,170000.0,217.42
37.5315340503681,126.95559975312,한강자이에클라트,138000.0,103.57
37.5235496234232,126.969108800283,철우,48500.0,68.76
37.5401892608214,126.968566170128,용산파크뷰(46-3),50000.0,27.57
37.5494338815745,126.980242085051,신주에지앙,49000.0,89.6
37.5329822031505,126.956010948315,용산소미글로벌리버파크,112000.0,26.46
37.5378847050012,126.970395589933,이안용산1차(103동),44000.0,84.96
37.5511168671417,126.975061656468,동자,125000.0,27.34
37.5424107077235,126.960836277813,울트라멤버스,180000.0,132.05
37.5272628283211,126.995627043395,현대플래티앙Ⅰ,152000.0,130.3
37.5339990786581,126.970873901839,용산파크e-편한세상,157000.0,84.67
37.5380669235673,126.969827066954,이안용산1차(102동),97700.0,132.34
37.5426235000371,127.017470633694,옥수이테크빌,930000.0,84.37
37.5444637906319,127.043847448613,아크로서울포레스트,105500.0,198.219
37.5466510128127,127.059759824444,서울숲금강아미움,165500.0,81.02
37.5429669900718,127.046134329304,신장미,70000.0,53.87
37.5405533134228,127.013756992619,극동옥정,130000.0,56.04
37.5371664149907,127.058410007166,성수동두산위브,130000.0,84.34
37.5455115738395,127.047989091289,서울숲한양현대,85000.0,84.81
37.5674713084173,127.031386204827,청계대주파크빌,66300.0,84.98
37.5613197994654,127.058676387507,YM프라젠,94800.0,84.95
37.5484499945307,127.051841904023,성수우방2차아파트,175000.0,59.82
37.5411130565341,127.045298240723,한진타운,220000.0,84.21
37.5353810387593,127.053956889626,강변청구3,80000.0,84.6
37.5611862139671,127.027854212704,무학현대,85000.0,84.495
37.5646311457744,127.053149788091,덕현해밀,77000.0,72.5
37.5479398476712,127.049536440857,서울숲해오름(717-0),60000.0,72.83
37.5666312747463,127.033798503022,홍익한신,101000.0,68.03
37.5585508546057,127.029834979306,행당브라운스톤,840000.0,59.27
37.5457843454815,127.042476851287,갤러리아포레,80000.0,168.37
37.5624377959208,127.038970698535,서울숲한성,227000.0,83.64
37.5563704136977,127.040249242632,서울숲더샵,290000.0,114.4
37.5376921057983,127.046314602996,강변동양,85000.0,84.56
37.5487159907398,127.063427393682,히페리온리버팰리스,53500.0,84.4845
37.5576258725209,127.072351905712,양지쉐르빌아파트,178000.0,59.02
37.5420589174559,127.04532053837,서울숲대림,47950.0,84.015
37.5552473058448,127.069695472047,성동리버뷰,17000.0,58.32
37.5634336094251,127.048161761013,한양마이라움,141000.0,18.36
37.5484104489106,127.050153941693,대우2,232500.0,84.97
37.5352464004244,127.054802195707,청구강변1,165000.0,84.87
37.5409436950385,127.017342493769,벽산빌라트,141000.0,159.63
37.5503795490386,127.021916573855,금호자이2차,95000.0,84.7313
37.5503878876474,127.0184661539,금호한신,24000.0,59.99
37.5706585521868,127.025520687706,센트럴큐브,163000.0,19.42
37.5460483051776,127.05595844119,롯데캐슬파크,87000.0,81.567
37.5494644745195,127.093493062375,아차산인앤인W클래스101동,180000.0,116.36
37.5464751222565,127.109258026428,흥화빌라트,40000.0,201.4
37.5554162454922,127.095346127218,대성빌라트(552-6),105000.0,81.69
37.534151371835,127.09221581351,강변현대하이엘,64000.0,84.72
37.5620822524853,127.085486843741,웰빙,15000.0,83.43
37.5456665249179,127.073727895881,신원리브웰화양동주상복합,132500.0,16.92
37.5484379045958,127.071086917603,광진We’vePark,57000.0,138.14
37.5574540546161,127.084047724818,두리,57000.0,82.3
37.5524811588351,127.092969690197,동우아파트,53000.0,64.995
37.5456758574304,127.085540979439,스타파크아파트,27000.0,59.23
37.5475729396468,127.067568020453,더메종건대,93000.0,18.22
37.5458336997714,127.074526056376,광진스위트엠아파트,100000.0,84.99
37.5375232159153,127.083069490545,구의현대홈시티,178000.0,84.93
37.539418435938,127.094611329543,현대13차폴라트리움,38000.0,154.92
37.5394473740167,127.082193135197,스카이빌2차,70000.0,49.53
37.5393049079531,127.091990996614,세림리오빌,45800.0,84.67
37.5630936217203,127.083725371034,삼민,64500.0,59.94
37.5563161112405,127.084278002053,대영2동,134000.0,84.33
37.5281164204926,127.082406512435,자양동현대,48000.0,84.55
37.5363276186846,127.082254203289,태천해오름주상복합,88500.0,47.05
37.545466944394,127.088797661055,구의자이르네,152500.0,59.7915
37.5282016302996,127.081403123975,로얄동아,84000.0,114.28
37.5321742518457,127.077494105752,명성,119800.0,64.85
37.5416047961619,127.098475191227,현대8(803동),46400.0,59.94
37.5456009634695,127.073966029845,위너스힐(111-89),73971.0,25.585
37.5432620368722,127.08865462063,현대팰리스,97800.0,83.8
37.5427354148426,127.092744631057,구의동현진에버빌,70000.0,84.997
37.5397274158194,127.063308892316,한영해시안,58500.0,69.77
37.5473875097122,127.08735294776,광진파크하우스,152500.0,45.5821
37.5386707378926,127.090182113114,강변에스케이뷰,77000.0,84.81
37.5368707420832,127.078004385396,대보아파트(798-3),68500.0,78.96
37.5603668238581,127.076869110827,테라팰리스중곡1,124000.0,71.803
37.5334495863743,127.070499521282,자양10차현대홈타운,160000.0,84.46
37.541501051299,127.103268296381,삼성광장1,120000.0,79.53
37.5423571152711,127.100947566847,상록타워아파트,54000.0,84.9
37.5688661073555,127.086494548803,에스케이,11222.0,58.43
37.535728560907,127.09188477421,옥산그린타워,247000.0,15.46
37.5300176447303,127.089792805342,광진하우스토리한강,105000.0,141.54
37.5382459828861,127.077937363821,테라팰리스건대2차,114500.0,75.03
37.5284372034525,127.085909787145,현대강변,226000.0,82.08
37.54257313525,127.095246940713,광장자이,170000.0,158.26
37.5360517267301,127.092835806633,아크로리버,37500.0,150.6416
37.5364189766742,127.081870177833,자양동명진센트라임,21000.0,30.49
37.5474823379959,127.072073681918,아스하임(111-102),9000.0,14.11
37.5470303133076,127.071171922451,화양타워,69000.0,17.73
37.5540171153721,127.09707993751,아차산한라아파트,63500.0,60.39
37.5771729640998,127.058555015309,전농동하우스토리,49000.0,83.115
37.5645003935628,127.06256266883,(아이엔에스새터),51000.0,68.86
37.5726924675573,127.044123220013,신답극동,44000.0,46.53
37.5625799833677,127.061412357173,양지쉐르빌아파트(415-1),20000.0,56.4
37.5628333025162,127.063365563887,장안예원(418-4),23800.0,32.38
37.5626220571184,127.064624785485,프라하임장안1,35000.0,21.34
37.5682947364262,127.06844620691,가우디트윈캐슬1,59000.0,48.97
37.5627366815273,127.071621036391,공감대(440-12),48000.0,100.21
37.5771847919718,127.029498265455,신설동역대우아이빌1,64600.0,47.988
37.5631781774466,127.064578407255,형인허브빌101동(417-3),9500.0,100.83
37.6035177185416,127.062226713574,투니온,35000.0,15.38
37.5670762132199,127.062972310423,청원파크빌,48000.0,52.36
37.5674601536132,127.069356408515,정암(363-11),57700.0,71.3
37.5678751887241,127.070662238255,정은스카이빌201동,18500.0,84.6
37.5707285208486,127.028449104364,청계한양아이클래스,58500.0,14.22
37.5627075395344,127.070640266379,비젼아파트101동,20000.0,99.95
37.5950056871497,127.059092236421,세진빌딩,26000.0,11.48
37.5685876161081,127.070645139934,대성장안애캐슬,70800.0,52.04
37.6043234599775,127.07042785142,이문2차푸르지오,71700.0,84.79
37.5650914448661,127.069493886305,우성3차(562),35000.0,84.26
37.578029851709,127.073174398508,U-포그니,71500.0,57.64
37.5637319115479,127.063783188555,신일해피트리2차(567),80000.0,84.83
37.5739044995154,127.049753887285,한신휴플러스그린파크,50000.0,59.69
37.5736383254457,127.0712427436,장안트윈B동,52500.0,84.34
37.578143699432,127.072798547222,르메이에르7차(313-8),55000.0,84.99
37.5649459435623,127.071141877313,형인허브빌아파트301동,90000.0,82.43
37.5984785520783,127.061915413884,이문동웰츠타워,55000.0,112.134
37.5712482140011,127.072202303825,르메이에르1차(344-1),16900.0,84.97
37.5690993674061,127.056818410979,엘림스퀘어3,76700.0,14.76
37.5823446326166,127.073299760443,휘경동일하이빌,35000.0,84.997
37.5711605328705,127.071634196093,태솔타운2차,65000.0,47.31
37.5808826791312,127.069120244697,장안현대,177000.0,95.45
37.5788571390771,127.045136566595,620-47(롯데캐슬L-65),80000.0,84.97
37.5685273372694,127.07154655304,현대홈타운2차,53300.0,84.97
37.5777179988599,127.072767566873,신부파스카(313-7),70000.0,84.99
37.5791794440151,127.035594125987,경동미주,27300.0,96.96
37.5622359857408,127.06192445701,글로벌팰리스,77000.0,22.79
37.5635605140704,127.070638015754,장한평월드메르디앙,66000.0,84.95
37.5630402322628,127.069041278972,은하수드림필,38500.0,84.91
37.5709259988426,127.07014203825,청솔아파트(B동),59200.0,53.79
37.5654164750873,127.062828861793,신일해피트리아파트101동,7900.0,65.58
37.6042791803574,127.061817052962,주성아우라,75000.0,12.775
37.5664757976441,127.053850726268,우창프라자,13200.0,95.76
37.5669003328218,127.053285984052,한일노벨리아,37800.0,14.76
37.5703027250976,127.070083610688,아르떼하임,83000.0,53.34
37.5738448537072,127.04504116911,청계와이즈노벨리아,60800.0,59.8379
37.5805976175538,127.071963511775,방원예뜨랑,77500.0,89.2
37.5652943577914,127.065377531925,일성트루엘,58000.0,84.9216
37.5628334001815,127.070352783379,비젼아파트102동,154000.0,84.4
37.6174453748348,126.893514970399,청량리역한양수자인그라시엘,70000.0,84.97
37.5650037519619,127.067677480322,우성5차에비뉴,80000.0,84.17
37.5645197126731,127.072572382785,서광아침의빛,71500.0,84.98
37.5944086019984,127.063929388682,이문휘경지웰에스테이트,50800.0,59.9848
37.5906512208502,127.055510152601,회기아파트(347-7),43200.0,82.66
37.566955801236,127.06977270922,에메랄드(351-5),70000.0,59.764
37.5655179693251,127.069963449153,신부파스카(563),38000.0,84.99
37.5980808729347,127.06101529612,이문스카이뷰,51000.0,25.99
37.5723114889674,127.075919195708,천강(332-6),74000.0,109.78
37.5698611275083,127.049698222216,청계벽산메가트리움,46200.0,59.93
37.5707974761804,127.070058944643,청명에버아트3차,37800.0,52.96
37.5710674882904,127.070237709182,청솔아파트(A동),84000.0,48.26
37.5703397413816,127.029907259076,청계천대성스카이렉스2,36700.0,84.99
37.589506350743,127.053910340334,동일스카이씨티,30000.0,62.66
37.5771845144737,127.035721439041,롯데캐슬피렌체,59000.0,26.08
37.5717796908307,127.067673649867,금강아미움,50000.0,82.05
37.5711799554068,127.068821944985,U포그니2차,94750.0,55.06
37.590046068613,127.053661066923,회기힐스테이트,9100.0,84.99
37.5700890006172,127.069945877911,장안뉴시티,25000.0,17.53
37.5951863264526,127.059111176025,민족통일MJ캠퍼스외대3차,93000.0,18.54
37.5748683003768,127.070597527798,동대문더퍼스트데시앙,37500.0,75.8896
37.5623318745324,127.063241316176,에스아이팰리스장안센텀,73000.0,26.537
37.5807799192093,127.071319173202,은하수드림빌,13800.0,112.7904
37.5701711462039,127.049516636038,청계지웰에스테이트,59000.0,19.525
37.5769162415789,127.073867939663,정은스카이빌101동,12650.0,110.44
37.5613590070687,127.069901950155,장안푸르미에,74500.0,17.5574
37.5758810898601,127.06530754342,래미안엘파인아파트,91500.0,59.95
37.5669329066906,127.053973867265,답십리한화,65000.0,84.86
37.5890829156144,127.0576570784,휘경제이스카이아파트,20800.0,84.43
37.5887717921907,127.054649388282,캠퍼스드림오피스텔,10500.0,16.04
37.5691800617318,127.06936015395,현대썬앤빌601,23000.0,18.35
37.5778169177932,127.033588464641,동대문베네스트,75500.0,18.81
37.5923134152138,127.066893180891,동양2차,61000.0,84.614
37.5804383848296,127.07021322729,경남하이빌,54000.0,84.56
37.5749319843241,127.065952197042,우성그린,59900.0,59.36
37.594389094016,127.088790878084,상봉태솔아파트101동,53000.0,59.2
37.6112271499659,127.078776138347,리치빌,43000.0,105.78
37.6017337226035,127.089596953038,동일스카이시티102동,51000.0,63.82
37.6077860079865,127.077679848035,효산센터빌,60000.0,81.46
37.5992798892602,127.077484271471,태능에셈빌,29500.0,84.843
37.5935850116432,127.071310443956,남광타운,52000.0,48.14
37.6031458746534,127.084674730351,현대휴앤미,46500.0,100.2
37.5893805389973,127.077859538043,동성네스트빌,49000.0,83.29
37.5894598938076,127.081757384823,포인트아파트비동,39500.0,83.2
37.6065213238369,127.082152273945,한영(101),46000.0,57.66
37.5984170305006,127.106277064008,한울네세창,39000.0,84.68
37.584928264819,127.076511230052,삼성제이드아파트,41600.0,46.41
37.6085234710246,127.099196892011,동성5,37900.0,59.91
37.5926984475024,127.087619999109,세모,34000.0,68.35
37.6028833989559,127.106898678269,염광(5/8/10/11동),41400.0,36.9
37.6031130112872,127.084391352869,현대휴앤미(102동),44000.0,67.36
37.5995503424314,127.087933102562,정우아파트,65800.0,81.5
37.6132622675986,127.080167090098,SM해그린,39500.0,84.32
37.5920359056725,127.074282238748,금강산아파트,50250.0,66.54
37.5970041028912,127.102085087725,예성그린캐슬,55000.0,58.9
37.5775605393485,127.080619776402,두산6,60000.0,59.55
37.6010542476791,127.110187336867,금호어울림(580-1),52500.0,84.93
37.5971934845523,127.102612235938,예성그린캐슬2차,95000.0,84.81
37.6148560082174,127.077906819525,묵동자이(1단지),22000.0,112.23
37.5886359194834,127.089600611672,건원베스트원,72800.0,26.38
37.6141897486016,127.077050994091,월등스카이뷰,64600.0,105.237
37.5950156902891,127.077877524896,미영리치타운,9900.0,84.71
37.5968290137259,127.094094579363,더하이어,50000.0,12.0156
37.5780587521201,127.085288086953,동진노블클래스,81000.0,80.4
37.5973351400052,127.093477736804,한일써너스빌리젠시1단지(101동),56500.0,84.66
37.5984814401257,127.096317153374,문수해오름,33500.0,83.61
37.5907880313854,127.083197044725,그린캐슬APT,57400.0,59.62
37.6136159805342,127.078311115034,공감대,54500.0,59.959
37.5998940651894,127.107821388666,백림금호,72200.0,84.23
37.5774275202186,127.091421465659,용마산금호어울림,31000.0,84.699
37.5902091383725,127.086710027773,킴스아파트,84000.0,38.91
37.6096322086455,127.105856760764,신내역힐데스하임참좋은아파트,53500.0,84.8456
37.6088143884186,127.096824604357,월드크라운,17845.0,110.29
37.5936958359251,127.087753762254,상봉힐스테이,45000.0,14.47
37.6019864306232,127.089622962442,동일스카이시티101동,64400.0,60.76
37.5764203108934,127.088449167558,면목삼호101,46800.0,83.08
37.593776137747,127.089996063609,센트럴파크55,54000.0,48.83
37.6143378887968,127.073491872132,한국,45000.0,59.64
37.5947584409906,127.092849355096,백운아파트,35000.0,77.98
37.5927201389905,127.098288304182,주함해븐(101동),102000.0,50.625
37.5724959931949,127.085315476234,쌍용더플래티넘용마산,38700.0,84.9731
37.6072232963871,127.097850301187,원당,45000.0,63.0
37.5964244330413,127.094139364045,로얄팰리스주상복합아파트,12500.0,59.76
37.5955066222163,127.085331889126,상봉어반뷰,60600.0,13.26
37.5810714583691,127.094448797345,용마한신2,50500.0,59.84
37.6045724035792,127.07774751254,삼익아파트.상가동,48700.0,59.34
37.6154121957482,127.083558941061,세방,64000.0,59.94
37.6051905864565,127.101463214375,새한,51500.0,115.84
37.5868619082189,127.074646310136,일신강변,10950.0,59.6
37.5922413831767,127.078653309882,현대휴온,11500.0,18.17
37.6093953160834,127.075518917001,묵동포레시타,22900.0,15.35
37.5960919209569,127.09419748756,예원캐슬,30000.0,33.94
37.6055355943792,127.098462353835,경원,97000.0,55.89
37.5794901864405,127.094032791992,한양수자인사가정파크,51800.0,74.9394
37.6180722801702,127.082007198802,정은스카이빌,31000.0,84.66
37.5889139282119,127.100922662771,개인택시주택조합(미성아파트),71300.0,55.4
37.5728763501551,127.080633631046,늘푸른동아,60000.0,84.97
37.6025668844272,127.099153989731,망우역신원아침도시,81000.0,57.991
37.6140924325305,127.093292571921,진로아파트,28550.0,101.86
37.5941651025672,127.091394266986,더클래스,31000.0,28.25
37.604712665163,127.10631512475,대보,62500.0,44.01
37.5780844808533,127.081257133954,두산5,57000.0,59.72
37.6003850259687,127.096239885415,다우훼밀리,50500.0,84.87
37.5944293650104,127.033798955562,종암선경,49000.0,59.4
37.5967665167508,127.012991102956,샤인힐,55000.0,83.73
37.6186774077418,126.999866682232,풍산쉐르빌(815-1),49000.0,78.22
37.6167648609946,127.002136993966,"산장아파트가동,나동",83000.0,71.5
37.5930327773352,127.019165692086,코아루센타시아,54500.0,113.02
37.6018362255029,127.008979537483,정릉2차대주피오레,104500.0,59.9627
37.5841413862939,127.020967748216,보문하우스토리,74500.0,117.025
37.5973189457117,127.020925811003,대성유니드(641-0),76500.0,84.93
37.6028250097742,127.015555006077,정릉힐스테이트,94500.0,84.92
37.6032122301232,127.018248295413,라온유,78500.0,109.75
37.5995593887366,127.016729758853,정릉스카이쌍용아파트,75000.0,109.27
37.6231948676477,127.049454481266,참누리아파트,120000.0,84.98
37.605051194495,127.030996105009,동일하이빌뉴시티,94000.0,126.6
37.5968551400627,127.031722511149,아이파크종암동2차,49000.0,84.73
37.5886948079196,127.01447451526,청기와,49500.0,89.34
37.5998800276699,127.037015416485,선경(127),65800.0,59.17
37.5964358866582,127.041393315971,샹그레빌아파트,20200.0,79.248
37.5884380675385,127.005414564243,휴아름스튜디오,73000.0,16.27
37.6037394590557,127.010309279898,중앙하이츠빌2단지,72000.0,84.6824
37.6001891568565,127.017519416786,정릉힐스테이트1차,25000.0,84.307
37.5951736674612,126.988907193809,성북,107000.0,44.79
37.597995429021,127.011645485702,돈암동해피트리,72000.0,132.43
37.6171972611388,127.00090319015,피오레,39000.0,104.65
37.5955725469059,127.017663274029,트라움하임,20500.0,60.78
37.6110194278353,127.002559506609,동우,11900.0,49.62
37.6136471815814,127.06101917786,석계역한일노벨리아시티,83000.0,15.2144
37.6065445649621,127.030381206983,성북힐스테이트(101동),72500.0,101.97
37.5821301093423,127.01348658649,삼선현대힐스테이트,90000.0,56.83
37.5893064316483,127.023748974341,안암동삼성래미안,80500.0,84.8681
37.6017705330128,127.03478840074,종암2차SKVIEW,40000.0,59.98
37.5967817181294,127.03395741749,센트럴힐,49500.0,77.44
37.6184876142783,127.007297911588,정릉풍림아이원,59500.0,59.88
37.6075161605071,127.01440352853,정릉푸른마을동아,71000.0,59.94
37.6032350599381,127.026198036694,돈암현대아파트,54000.0,84.39
37.6326420596353,127.021706199339,어반레프대원,34000.0,52.07
37.646934977258,127.018174116348,청솔(269-25),40000.0,68.65
37.6245277312563,127.037646246097,장원(101),58000.0,71.1
37.6434341578327,127.017888750262,수유벽산2차,16000.0,84.22
37.6326904709689,127.022516239746,태솔타운,33500.0,30.5
37.6266176969961,127.031017519417,한일,42000.0,54.99
37.6250540610005,127.037447480684,현대(148-494),46000.0,59.97
37.6460535979792,127.017826264401,경원북한산휴그린,45000.0,70.34
37.6175157209994,127.033404698783,젬스톤타운,74500.0,78.09
37.6358377607602,127.03201596996,수유역두산위브1,41000.0,84.9909
37.6489399918793,127.015232605636,은석,47300.0,70.87
37.6267143060941,127.041240405765,번동한양아파트,72000.0,84.67
37.6356702917373,127.030911839139,수유역두산위브2,42500.0,84.9909
37.6383942201348,127.022192792632,형인휴아름,51500.0,62.99
37.6316903733062,127.023458274882,수유삼호,44500.0,74.48
37.6323208607453,127.024456556502,헤리움,50500.0,29.89
37.6239783197816,127.038174633568,동문,56500.0,59.64
37.6315060777268,127.035528776935,오동공원현대,33300.0,84.7848
37.6476588032448,127.015156537494,FIRSTVIEW,49000.0,46.61
37.634699803905,127.036115344821,센트로힐,13500.0,72.7695
37.648238745425,127.015318241122,수유다우아트리체,25000.0,14.86
37.6586517021776,127.011938164744,다인플레움,14900.0,66.73
37.6386044251266,127.023104348624,예도팔라티움,55000.0,13.47
37.6876330896878,127.048658044037,도봉파크빌3,58000.0,84.166
37.6665592478836,127.044882127345,이에스에이아파트3,88000.0,84.87
37.6558003021092,127.042854036995,북한산한신휴플러스,27000.0,114.5534
37.6501793937443,127.036540979123,황지,46000.0,62.04
37.6470757996143,127.03212719335,성원팰리스,23800.0,82.7
37.644148081091,127.035785094184,금강102,50000.0,59.98
37.6603720696484,127.049941415646,창동역블루핀2동,34500.0,65.83
37.6424106463897,127.041234691696,DK포시즌,53000.0,77.85
37.674550924771,127.047676582579,한양수자인,39500.0,84.46
37.6559322636522,127.038229291274,그린힐스아파트,34700.0,54.83
37.6511200952129,127.025661515372,신일라이프(B동),43500.0,84.35
37.657368090442,127.028238361724,신원에벤에셀,55000.0,84.9
37.6634040552475,127.028533511046,신동아아파트5,34800.0,114.9
37.6614060261704,127.038143357556,도봉금강아미움파크타운,61500.0,56.3864
37.6329124775143,127.042712078629,창동한승미메이드,62500.0,112.9242
37.6560734842369,127.02741081892,파라다이스빌,78000.0,84.91
37.6686272019433,127.045525245345,이에스에이아파트1,16000.0,124.66
37.6496661614097,127.029940853734,한솔캐스빌,31500.0,48.88
37.6560449765677,127.040128123941,미소애,39800.0,45.466
37.6572009365265,127.040392346116,새로움아파트,40000.0,64.56
37.651008639581,127.028801524773,그린스테이트,23000.0,73.12
37.6533677294364,127.02187292111,삼보,58000.0,77.1
37.6562079642853,127.036522854679,피스플하우스,90000.0,185.09
37.6633180819517,127.039531579839,동부센트레빌아파트,63500.0,131.336
37.6497971759976,127.027292929292,e편한세상,81000.0,84.754
37.658956130778,127.046300185008,창동현대4차,45000.0,101.9957
37.6856420049315,127.043139662808,도봉산리베니움,68000.0,84.58
37.6663850778413,127.045614095751,이에스에이아파트2,58000.0,84.98
37.6334329434769,127.04255535448,초안산신도브래뉴,59700.0,84.9991
37.6643336090575,127.030293219915,동양크레오아파트,57000.0,84.9696
37.6637734556532,127.045715521487,우암쎈스뷰아파트,60000.0,84.2
37.6473174834296,127.029200092887,브라운스톤쌍문,35700.0,59.9788
37.6460347946701,127.026343935522,백조,22000.0,64.43
37.6856862467398,127.044820639472,삼안리치,29500.0,58.96
37.6486330035691,127.03834713614,금성파크A동,40000.0,48.98
37.6611236514876,127.034044277256,삼익세라믹아파트,41900.0,58.77
37.6589255083572,127.025138236022,벽산아파트2,40000.0,59.581
37.6575747203012,127.038883697083,성원하이츠A동,85500.0,71.22
37.645665566891,127.035022338758,창동한신휴플러스(621-69),31800.0,118.03
37.6622481099352,127.028848254054,신동아타워아파트,14500.0,60.0
37.6672859117735,127.044821359728,방학지음재힐스,41500.0,21.51
37.6435953086566,127.031082137295,쌍문리버뷰,100000.0,45.88
37.6601328076645,127.046083204845,창동3차현대,97000.0,135.353
37.6669775389205,127.047276059135,방학동삼성래미안1,17000.0,118.381
37.6501814211753,127.036101310327,스마트트라움,24000.0,16.42
37.6599075567277,127.035703351898,대웅,82000.0,44.82
37.6561948591986,127.045221985792,창동신도브래뉴1차,49000.0,84.989
37.6610445435325,127.033100853351,효성하이타운아파트,34000.0,84.87
37.6603784146842,127.023012949031,신동아아파트3,83000.0,84.86
37.6587004128449,127.035433048646,쌍문동LG트윈빌2,36000.0,240.97
37.6378479821145,127.035668887436,금용,52500.0,59.97
37.6390073330476,127.04104643223,한신APT,46000.0,84.92
37.6590546172174,127.072714963046,삼창타워주상프라자,52400.0,59.39
37.6537415606119,127.068905323896,상계1차중앙하이츠,55000.0,59.82
37.6219706775366,127.061560974006,한일1,65300.0,59.953
37.6450196152645,127.081845436388,극동의푸른별1차,51000.0,84.97
37.6731076450664,127.050702832465,현대4차,60000.0,84.99
37.6225426458045,127.077434214706,광덕파크빌아파트,60400.0,84.69
37.6305824413885,127.044410845954,초안산쌍용스윗닷홈,38500.0,84.69
37.6227688224453,127.07329808795,씨엠아파트,47000.0,73.23
37.6277590706451,127.075092631276,신원아파트,60000.0,59.59
37.6746150401556,127.057085920498,우림루미아트201동,42500.0,84.569
37.6585308201371,127.074822269911,신일,70000.0,59.97
37.6719775519059,127.05681832076,상계우방유쉘,14800.0,116.46
37.618296858122,127.076566251997,67디벨리움,72000.0,17.27
37.6588550742898,127.077350763596,중계스타클래스,69000.0,84.801
37.6406037217621,127.052769690439,녹천역두산위브아파트,69000.0,84.9343
37.6291371037778,127.075414954062,건영장미아파트,10400.0,84.88
37.6564623013243,127.066151624663,소담빌,52800.0,14.65
37.6252618833567,127.080311492431,하늘공원(101동),77000.0,84.58
37.6597839375192,127.069159557523,노원IPARK,61000.0,145.58
37.6748157140036,127.050930136747,상계대림e편한세상,82000.0,83.87
37.6582723331521,127.073380575983,동도센트리움(601),94200.0,84.949
37.6542913240526,127.073557408671,중계3벽산,51000.0,114.87
37.662033497416,127.075494801587,정진아트리움,61500.0,84.95
37.672725166933,127.052784607479,상계1차현대아파트,46000.0,83.92
37.659824151853,127.073287131493,대호,105000.0,59.98
37.6511844264436,127.070523641827,양지마을(대림)1,45000.0,114.96
37.6770184661075,127.051464423876,상록수1단지,65500.0,53.656
37.6259574192854,127.080613565961,삼익2차아파트,87000.0,83.409
37.6238708270864,127.081134878842,화랑해링턴플레이스아파트,69500.0,126.78
37.6604756878405,127.079089720154,청암3단지(582),39500.0,84.438
37.6615026017262,127.076114088377,LIG건영,63800.0,59.92
37.6206662696947,127.08867090156,효성아파트,62000.0,73.18
37.6875055926607,127.05425340701,수락리버시티3단지,29100.0,84.88
37.6284095507027,127.069253048767,풍림아파트B,35800.0,31.32
37.6298798919633,127.071927285529,삼익4단지아파트,53000.0,39.6
37.6279956104976,127.07686359966,동신아파트,70500.0,59.99
37.6768022848237,127.057952740123,비콘드림힐2,70000.0,84.52
37.679290522778,127.057018425406,수락파크빌,42000.0,84.62
37.6472663783183,127.079636041649,주공7,100500.0,44.1
37.6390650104838,127.077028750266,삼익선경,46500.0,134.19
37.6378661643059,127.06870677712,한신2,45000.0,44.52
37.6657817475626,127.079487735282,청암1단지,70800.0,84.8
37.6387855630708,127.062487927133,롯데(505),92000.0,72.49
37.6816047113036,127.056591337879,수락산벨리체,32000.0,114.92
37.6329811765686,127.04430328766,초안1,68000.0,49.6
37.6715473265812,127.05296241189,상계현대3차,63300.0,84.96
37.6245905661541,127.065415722199,미륭,49000.0,51.48
37.66622169337,127.067489665682,한신3차,55700.0,60.44
37.6233359689655,127.07142868169,대아2차아파트,68000.0,59.88
37.6232025554202,127.058997534912,성북역신도브래뉴,88000.0,84.8437
37.6431156549138,127.059603718686,중계센트럴파크,75000.0,84.75
37.6285645918387,127.072728296047,공릉우성아파트,58500.0,84.97
37.6861512919266,127.053555865086,수락리버시티4단지,51000.0,59.9
37.6216998227718,127.076943771621,보람노블레스아파트,52500.0,84.51
37.6470266788091,127.081276998765,금호타운(583),7500.0,59.52
37.625387734468,127.073710730516,진명비베레,42800.0,13.7456
37.6235462747467,127.07876614124,주완위즈빌,59500.0,69.51
37.6290827264263,127.058693594607,월계역신도브래뉴,48000.0,59.8587
37.6630431287568,127.074515576814,상계대림,50000.0,59.67
37.6752765325711,127.060003280733,수락현대,49000.0,84.87
37.672113569737,127.081331103234,미라보(성림),67500.0,84.5
37.6172053178639,127.066444397558,건양노블레스빌,55000.0,84.659
37.6630145873682,127.055709518101,상계주공10(저층),87000.0,54.54
37.627737624921,127.086908237543,공릉해링턴플레이스,79500.0,99.917
37.6214491190448,127.085148465261,청솔아파트9,57000.0,84.9
37.6204331588828,127.072770893427,녹주아파트,103700.0,84.744
37.6450029451238,127.067782742756,중앙하이츠아쿠아,55000.0,84.4675
37.6729844852423,127.05920275961,한신4차,73000.0,84.84
37.6504652482761,127.081715544764,현대(3차),38700.0,84.35
37.6313218014175,127.04292063833,초안2,31000.0,59.85
37.6799630377746,127.053504710908,은빛2단지,48000.0,39.7
37.5967923798055,126.919342266902,삼흥리치,34000.0,59.26
37.596347023578,126.915989399109,예청A,30500.0,48.28
37.6175489604473,126.92180380427,정익제이원6차,63000.0,28.65
37.6238725179704,126.931167340128,서강아파트,41800.0,202.2
37.6061438814851,126.914648599557,디케이,54000.0,84.33
37.6092824904603,126.920738237352,호림리슈리안,26000.0,59.9
37.6008672727412,126.918268296361,청우참조은,45000.0,50.31
37.6067425555287,126.910825807583,디딤빌아파트,55000.0,84.32
37.5911091863024,126.91880309785,명진,49000.0,84.03
37.6120719571594,126.914175650667,새천년3차드림,34200.0,84.23
37.5979299585363,126.920118755086,거장메카(116-22),32500.0,24.77
37.61048520532,126.910153464534,예승빌라트,45000.0,64.08
37.5822298027046,126.907175829848,자선메르시안(101),39000.0,63.4
37.5973117179824,126.920414284405,다원(107-4),11500.0,57.23
37.6005226985014,126.921535013261,응암아네스트,85000.0,13.5346
37.5987658814918,126.907166727673,은평신사두산위브2차,95368.0,84.99
lng,lat,DMC파인시티자이,50000.0,59.98
37.6040926679862,126.917149058373,건우샹그리라,160000.0,82.0
37.6424032153905,126.931075917531,상림마을7단지아이파크(730~742동)BL1-14,84500.0,167.46
37.6489648175447,126.931865892719,상림마을6단지푸르지오(606~614동)BL1-7,53000.0,101.61
37.6289520206358,126.91340006875,갈현건영,121000.0,82.94
37.6320493391686,126.925973863366,마고정3단지센트레빌(301~309동)BL2-11,67000.0,134.96
37.6196345309336,126.921478232582,극동메트로타워,49000.0,104.49
37.5982552017052,126.912718861466,거성리젠시,42000.0,45.66
37.6084774174945,126.912035550188,송학,45500.0,71.38
37.603820664216,126.917028072962,에버그린,35000.0,84.9
37.6082713999105,126.912087436325,그린,42500.0,51.76
37.6109859641691,126.928304178417,예가크레시아,44800.0,49.8
37.6054172802019,126.904369139865,구산그린빌,53100.0,59.76
37.5867793894855,126.911067804581,자선메르시안(162-21),64000.0,66.35
37.6138278357976,126.932694760271,신우아파트,40000.0,114.85
37.6049881455562,126.917125868537,두성,38500.0,74.83
37.6137762058735,126.934287605774,남해그린힐,49000.0,59.87
37.6047348770644,126.905833856427,두성아파트,24500.0,84.68
37.6112701361362,126.927860727558,미래하임,61750.0,31.8
37.5797876306249,126.904540499243,월드메르시안(179-9),41500.0,80.33
37.5990703503183,126.916996205854,해태드림타운,27000.0,59.18
37.6037967086756,126.913405909205,신아굿모닝(64-15),18200.0,76.22
37.610466497813,126.928376481805,주주베B,37700.0,28.24
37.6152144525199,126.910572853861,아름(526-2),41000.0,69.45
37.6135791132249,126.905316993344,금강포란재(101),49500.0,84.18
37.6248925425227,126.911947790021,인우(281-215),110000.0,78.45
37.5795941415816,126.898649192226,DMC자이1단지,47000.0,116.92
37.6145898381894,126.906783485647,동익파크1동(355-95),100000.0,84.98
37.6276515409663,126.936495053805,폭포동4단지힐스테이트(426~428동)BL3-11,120000.0,101.94
37.6306462940032,126.921332402925,박석고개1단지힐스테이트(112~115동)BL2-13,69000.0,134.84
37.6345826403906,126.92455178598,우물골2단지두산위브(201~203동)BL2-4,54500.0,59.94
37.6014730072851,126.915578451899,명남뉴,48500.0,84.51
37.6181304501475,126.931503264068,대암아파트,73000.0,73.45
37.6399136661294,126.919886990939,은평뉴타운꿈에그린,63300.0,59.92
37.5876532934276,126.907820235332,DMC문영퀸즈파크아파트,51000.0,84.97
37.6211275480702,126.913477222604,반도하우드,52700.0,84.56
37.6025480759421,126.926786984708,DH팰리스타워,48000.0,43.95
37.5944583657773,126.911309703194,명남더블레스(39-19),82000.0,83.65
37.6381686141123,126.936416651273,은평뉴타운 제각말 푸르지오(5-2단지),47200.0,134.74
37.602180708743,126.927169770019,거장카운티,72300.0,38.7011
37.5864199722439,126.910694831966,자선메르시안(162-18),42000.0,74.38
37.5945228454471,126.918645845666,밝은문,52000.0,43.82
37.6074832853719,126.922884688887,만민하늘愛,69000.0,73.34
37.609031353119,126.9217710449,삼성타운,58500.0,84.83
37.5940227899892,126.91186233799,다원그린,54500.0,81.16
37.5943677551547,126.913904414299,선정(35-2),113000.0,73.43
37.579982499336,126.903633434786,DMC센트럴자이(4단지),54000.0,55.74
37.5950233536078,126.913094494283,부흥아파트(33-10),42400.0,84.45
37.60950253401,126.928681383152,유성아이비아파트,37000.0,40.76
37.6093890471488,126.929644951986,서경아파트(15-58),51000.0,28.39
37.6202762504113,126.931828083835,삼익(217-9),39000.0,84.71
37.6022865049012,126.905468219322,라이프씨티,46000.0,59.32
37.60652924032,126.913296625681,솔빛,83500.0,84.88
37.6441911788633,126.926967082978,상림마을7단지아이파크(713~718동)BL1-11,85000.0,84.95
37.644833690056,126.927730495248,상림마을7단지아이파크(709~712동)BL1-10,11900.0,84.84
37.6176778831158,126.921519254341,대덕타워,23500.0,14.66
37.6111762013158,126.927923449817,나이스홈,88000.0,29.98
37.6444412427595,126.922786444814,상림마을8단지롯데캐슬(810~820동)BL1-1,77500.0,84.79
37.6051095696147,126.924606931558,녹번2현대,106000.0,84.94
37.6352331401596,126.924112226405,우물골2단지두산위브(245~255동)BL2-6,26200.0,84.69
37.6088720150094,126.910312148944,우공아트빌,71000.0,68.01
37.5989642121392,126.906169863044,신사동한신휴플러스,59000.0,114.49
37.6013596178473,126.918462082469,미랜드,43000.0,84.98
37.6102282647724,126.927766258844,모아아파트(103동),55700.0,39.47
37.6174190134165,126.920553017457,정은노블스,52000.0,71.3
37.601604450571,126.915562789051,청운퀸즈,80000.0,75.665
37.5862818148423,126.911485385772,DMC월드,84000.0,83.151
37.6452288057488,126.924900323142,상림마을8단지롯데캐슬(801~809동)BL1-2,67000.0,84.39
37.6029735422823,126.918957128078,아그네스풍림아이원,63500.0,88.01
37.6184585120937,126.93136930595,은혜스카이빌아파트,46500.0,84.335
37.6124360081327,126.916127035544,플라잉캐슬,48500.0,55.7
37.6030320162267,126.92710790084,세민HIPARK,75000.0,57.57
37.5911580593299,126.913284795138,신현,48500.0,99.81
37.6394727910622,126.918276555472,힐데스하임,35000.0,40.63
37.5922924669399,126.9202686953,뉴월드(402-42),39700.0,45.73
37.5914419640029,126.918732308616,모아(365-35),65000.0,64.92
37.6252249174966,126.929368581204,북한산대창센시티,98000.0,84.72
37.6420380991311,126.929337256328,상림마을7단지아이파크(719~729동)BL1-13,25000.0,101.82
37.610117380578,126.927517315867,모아아파트(102동),28000.0,28.29
37.6067442315067,126.919816915866,역촌월드,51500.0,43.22
37.6040993976444,126.912735022909,부호(103동),30000.0,84.72
37.6110273141137,126.927999249518,미래하임(6-19),45000.0,30.62
37.5898530826788,126.90511245446,신성,43000.0,61.32
37.5923840916925,126.920929290173,뉴월드(240-63),80000.0,79.9
37.6005247432004,126.918437627499,하늘애,48750.0,84.84
37.6100514016247,126.917720734027,역촌,85500.0,99.68
37.6129093305885,126.93310434473,불광롯데캐슬,31700.0,59.98
37.6201674844369,126.920967384569,베로니스,81000.0,27.97
37.5955669839631,126.923882803525,e편한세상백련산,20700.0,84.72
37.6168753070495,126.923894387567,LUMINO816,23000.0,17.02
37.5998971291546,126.920708787177,위산일리온시티,65000.0,18.43
37.6004445878031,126.913301309199,신사성원,18800.0,84.96
37.6075919366078,126.922186036575,북한산포레스트,80000.0,29.02
37.6362276825971,126.933104177994,은평뉴타운 제각말 푸르지오(5-4단지),55000.0,84.87
37.6008055786079,126.927253324221,경원파발리안,16500.0,70.36
37.6178661384981,126.920768656809,유진아이디움,46000.0,14.03
37.6150019079499,126.90718709549,동익파크2동(355-98),17500.0,84.95
37.6176333915465,126.921004953295,메트하임,38000.0,14.03
37.6138148239687,126.910173130426,천지로얄,41500.0,74.64
37.6079958215228,126.911891719912,온세,70000.0,79.95
37.5915000500929,126.913127238022,구암,52300.0,110.52
37.6247385557006,126.9116957009,인우(281-236),36000.0,76.65
37.6056337574827,126.922097476983,위산엘리시움,11400.0,39.26
37.6236085406654,126.917423282042,유호루하스,22600.0,16.768
37.6089543004106,126.930524668373,영화노블레스아파트,73000.0,24.41
37.5597701692567,126.927524126157,하이펠리스,46000.0,122.2
37.5824934914338,126.935525825003,홍은드림아파트,95000.0,84.9
37.5722579341307,126.917837154419,DMC파크뷰자이5단지,48000.0,59.981
37.5954470125951,126.934460556131,서강2차(2동),44000.0,94.41
37.6013307772848,126.950608123299,북한산삼부르네상스201동,145000.0,70.602
37.5822498397398,126.9274157311,베벌리힐즈,44500.0,236.92
37.5678929769233,126.934725805214,충우하이빌,48000.0,105.44
37.5771319294204,126.909312245059,한울뉴타운,63000.0,73.29
37.5957863424286,126.940263974814,HDX휴팰리스,52000.0,59.0362
37.5742456638307,126.927683638177,선명(101동),52000.0,65.0
37.5887847328743,126.93816134376,남양,70000.0,59.94
37.5626715369651,126.962774481303,충림예하임,50000.0,84.6
37.576016808018,126.930024691698,파크빌,49500.0,70.76
37.5795062291669,126.929656324761,부림,63500.0,102.21
37.5576412309944,126.944922346024,예스에이피엠,12000.0,63.41
37.5657784164438,126.92642863543,연희웨스트팰리스,95500.0,13.12
37.5722579341307,126.917837154419,DMC파크뷰자이4단지,100900.0,59.981
37.5634123712897,126.955579709149,조은2차,45000.0,84.85
37.5945551058077,126.934595292455,서강1차(1동),97000.0,71.53
37.5812603609938,126.950591497251,서대문푸르지오센트럴파크,96400.0,59.94
37.5644307079268,126.95737368342,우민B,46200.0,84.52
37.5629089558068,126.965156673461,피어리스,159000.0,84.24
37.5614799411769,126.957614405989,경남(2차),18000.0,235.34
37.5732148212057,126.929597152651,연희궁,62500.0,50.04
37.5797835131076,126.932516884721,진흥,74700.0,78.02
37.5963609026581,126.949945811498,마체스터,93000.0,140.51
37.5799785377195,126.929669126032,신원지벤스타6,78850.0,147.33
37.5839158064261,126.942515939074,홍제에스피엘,170000.0,84.067
37.5758239882078,126.938076065943,성원쌍떼빌팰리스,63000.0,186.47
37.5951450080472,126.940783096628,홍은동아더프라임,47000.0,59.8736
37.584452234246,126.94810483535,인왕드림빌,53823.0,82.8
37.5854496970643,126.949287505319,인왕,95000.0,56.79
37.5821614180567,126.9496754552,무악재한화,40000.0,84.28
37.5632332843916,126.964153136232,미동,26000.0,55.009
37.5807323852233,126.935811844455,서대문노블루체,47000.0,27.59
37.5847145283796,126.949174786401,안산맨숀,119000.0,76.03
37.5610581681691,126.958841196498,북아현맨션,55000.0,84.95
37.559569339903,126.928266439124,센타폴리스,58000.0,66.72
37.5842795793182,126.914847809444,동도하이츠에이동,67000.0,84.0
37.5877063487661,126.948513119801,제니스뷰아파트,54000.0,69.65
37.5890422440957,126.938694076974,조한,106000.0,84.992
37.5609481554157,126.956330208466,북아현경남,60400.0,59.77
37.5880096152901,126.94627234828,홍제헤렌,38000.0,59.85
37.5868206157666,126.943653839042,서울맨션,35000.0,49.78
37.5830797861947,126.94253933815,경일,39800.0,73.08
37.5975065241554,126.944721080693,유원,43000.0,54.54
37.5964191429827,126.936867993244,세한숲속마을,48000.0,83.91
37.5946679785,126.942146456823,풍림1차,58000.0,64.53
37.5644439019221,126.952743423809,북아현2차,27800.0,82.12
37.55684321267,126.942455821627,신촌자이엘라,37500.0,24.7
37.5856076236204,126.945410327023,광산,23200.0,56.76
37.5874666277463,126.93408565681,그랜드(B동),63500.0,58.48
37.5787844128989,126.934456824228,우국한마음,33000.0,84.84
37.5699525219787,126.917785126837,디엠씨엘가,56000.0,30.36
37.5768029058835,126.907940591797,DMC현대아파트,130000.0,55.47
37.5612090697764,126.957027936794,경남102동,74500.0,96.49
37.5832545070894,126.91309991219,DMC서부인터빌,19000.0,84.66
37.5588196964988,126.927359353553,3RU-City,37900.0,17.19
37.5848578357405,126.949711001959,인왕궁맨숀,88000.0,54.02
37.5819153538654,126.95204947944,청구1차,69250.0,84.78
37.575893797905,126.90909696044,DMC한양,43000.0,65.34
37.5752239307976,126.928965058688,홍연,22500.0,52.23
37.5617878179405,126.931682776116,연대JK,94000.0,29.13
37.5682072877756,126.960110567225,반석블레스포레,74000.0,84.97
37.5762947166399,126.904390773298,월드컵현대,47264.0,59.76
37.5578417700217,126.957766426342,신촌헤리센트,70000.0,29.86
37.5550029517532,126.898485811237,한강2차대주피오레,70000.0,84.97
37.5470476694049,126.912425880302,그레이스3차,73500.0,70.16
37.5506717502318,126.960997630927,공덕스카이아파트,180000.0,84.97
37.5510531812588,126.911865545526,마포한강2차푸르지오,80000.0,110.88
37.5612241008805,126.916595102204,골든빌(210-10),67000.0,110.94
37.5609097832332,126.900266519203,광남캐스빌D,68000.0,71.74
37.5609543346981,126.90313086089,광남캐스빌,58500.0,75.82
37.5589179132829,126.902160953871,미원2,70000.0,55.29
37.562428062909,126.90793349523,엘지(214-15),15400.0,113.64
37.5363348193301,126.945414471447,비체힐리버뷰,71750.0,18.7586
37.5622752312115,126.903064749193,상암마젤란21,64500.0,55.85
37.5514939961362,126.910847538846,현대하이츠,73500.0,48.73
37.5497807352596,126.94828584267,우공,270000.0,77.85
37.5499951139537,126.912194517463,마포한강푸르지오,54000.0,137.04
37.5629979223143,126.911080348495,성산힐아파트,105000.0,77.64
37.5425216964611,126.947355980265,정우상가맨션,107500.0,118.02
37.5603657175014,126.900214389003,망원동동원데쟈뷰,162500.0,111.89
37.5428410149659,126.952463879815,kcc웰츠,68800.0,118.64
37.5596399694847,126.900219997237,함성드림빌,112500.0,82.85
37.5742846533291,126.896137421556,DMC상암센트럴파크1단지,134000.0,84.91
37.5477172600406,126.940607778703,동양엔파트,87000.0,84.91
37.5541743494452,126.900657336086,태경크레앙스(102동),68300.0,84.325
37.5490184883087,126.908938248804,리버아인,80000.0,81.16
37.5538829788617,126.899818447099,강변타운,20500.0,84.98
37.5592764633095,126.908857519358,그레이스,68000.0,37.42
37.5609690319574,126.899903579805,광남캐스빌A,66200.0,72.58
37.5593448741489,126.899560103247,대상3,105000.0,59.61
37.5561662835695,126.915104573906,광남벨라스2차,98000.0,124.69
37.5371402048809,126.94576497541,마포쌍용황금아파트,123000.0,59.9
37.5465344912557,126.9317231782,서강오벨리스크스위트,97000.0,84.96
37.5875039427788,126.881417089513,상암월드컵파크11단지,177500.0,84.66
37.5443796868285,126.949090043621,공덕더샵,111000.0,84.9902
37.5726880929371,126.889779870573,상암월드컵파크3단지,177000.0,84.94
37.5424449362081,126.953369360825,대우월드마크마포,68900.0,121.27
37.5595094424286,126.910126090564,해피존,83000.0,83.92
37.5619429474863,126.903619550736,노아아크빌,99000.0,106.2
37.5512582784547,126.954398330228,삼환나띠르빌,73000.0,84.9
37.5593206780508,126.909059829875,벨로스,77000.0,84.84
37.5561560048371,126.905263958789,대상4,67500.0,59.97
37.5563449954478,126.899126256981,참존1차(419-3),67000.0,63.08
37.5544295438073,126.955881212088,마포푸르지오더센트럴,80000.0,33.58
37.5688136371421,126.911757350757,건영월드컵,113000.0,79.58
37.5532684238697,126.900797171878,현대리버빌,277500.0,117.61
37.5448825237703,126.950548979183,롯데캐슬프레지던트,153000.0,191.532
37.5469254537329,126.924361847447,상수두산위브,190000.0,114.533
37.5447218794604,126.923242913131,상수동월드메르디앙,78700.0,141.79
37.5625148083271,126.903728149805,마포월드컵제이스카이,82000.0,59.95
37.5595958276262,126.896666669782,예지안파크뷰,63500.0,83.68
37.5589071188193,126.899500027153,마포한강제이스카이,243000.0,49.664
37.5448717592204,126.92642542293,신구강변연가,123000.0,152.336
37.5643766471472,126.922486244918,엘르빌,210000.0,123.33
37.5455836799342,126.948853628999,공덕SK리더스뷰,202000.0,97.7
37.5507467154903,126.913768796333,메세나폴리스,160000.0,122.867
37.5421232373534,126.935806939587,밤섬예가클래식,73000.0,82.36
37.5583823615213,126.899904550175,두영이지안,44400.0,59.95
37.5659003441787,126.920488236006,새마을,69000.0,41.65
37.5704847242836,126.905937440776,중동계룡아파트,117500.0,60.0
37.5488176019217,126.908518883684,한국프라우드,56500.0,84.9747
37.5626728606822,126.917560986181,광남벨라스(VALLACE),190000.0,74.99
37.54830521913,126.912097143068,KCC엠파이어리버,92300.0,156.13
37.5740531394105,126.901873208452,DMC마포청구아파트,26000.0,84.9
37.5536591479402,126.93676114681,현대벤처빌,125000.0,31.57
37.5444481595589,126.944868912049,대흥동세양,70000.0,114.24
37.561684270976,126.923701787705,대명,64000.0,55.24
37.5363258355614,126.943931946377,강변한신코아,25800.0,51.48
37.553569373995,126.919927450908,엠제이더퍼스트홍대,85000.0,14.89
37.5604198035029,126.90482960505,함성월드빌,31800.0,84.7
37.553836554578,126.956008539429,애오개아이파크,120000.0,19.5
37.5798183170436,126.884254666215,상암월드컵파크6단지,96000.0,84.53
37.5835469334073,126.879166069383,상암월드컵파크9단지,115000.0,84.98
37.5419152924015,126.957075561069,신공덕e편한세상,108000.0,84.68
37.5494230649757,126.936017162939,벽산솔렌스힐,87000.0,84.9657
37.5468465276338,126.93762318666,신수동성원,250000.0,59.76
37.5423430675085,126.941868951536,래미안마포리버웰,114500.0,114.97
37.5533866511831,126.931064388029,신촌태영데시앙,94000.0,84.97
37.5407679846928,126.94594655786,고려,56500.0,84.51
37.5622249169394,126.916579838576,예림아너스,73000.0,66.51
37.5448750548629,126.935945913625,신수동르끌레브아파트,17000.0,37.41
37.5502837926654,126.960492662094,솔리스타,171500.0,14.29
37.5433912735909,126.954104279714,펜트라우스,97000.0,104.97
37.5854508203348,126.882105659288,상암월드컵파크10단지,81000.0,84.89
37.58635705939,126.880246741457,상암월드컵파크12단지,59900.0,59.73
37.5547710816926,126.958022118015,예미원,73000.0,49.58
37.5564806162715,126.959256236895,서서울삼성,20000.0,48.92
37.5218226379733,126.83878164217,삼백,64000.0,49.88
37.5082581412744,126.864549210073,세양청마루2차주상복합,34000.0,84.42
37.5190816021613,126.839570318227,오투힐,64000.0,61.02
37.534659314458,126.868866148247,인우,41000.0,74.983
37.528820774615,126.859797896343,청우,43000.0,73.63
37.5182338958521,126.839472137639,세아쎄닛빌,46500.0,66.9
37.5176563351209,126.839724153362,당곡,29000.0,84.96
37.5201933164242,126.845424272503,청정,44500.0,73.94
37.5378138486411,126.865065460227,동도(729-5),54500.0,64.02
37.541316876194,126.830994543755,수명산태승훼미리,39700.0,84.4
37.5275685130252,126.83436044472,나산,34500.0,59.9
37.5165993927431,126.837041753178,청송그린힐,40000.0,69.26
37.5226540521462,126.842431146598,두원빌드피아(444-7),45000.0,84.69
37.5261503566772,126.846096751572,한우리(101동),30000.0,84.39
37.5300516885684,126.829622636031,주함헤븐103동,48250.0,73.88
37.5204476486187,126.849100951709,대성유니드1차,24500.0,59.87
37.5311154109633,126.833604656157,태헌(신월프라자),40000.0,56.97
37.523793955217,126.847058293914,예건미예뜰1동,47900.0,70.84
37.5212129509126,126.860299347453,동림,34000.0,74.01
37.526490626738,126.843802917734,중흥,49250.0,80.24
37.5204884978885,126.839688910487,정은스카이빌(1044),44500.0,67.42
37.520464450295,126.838505157117,대방샤인힐,86000.0,59.648
37.5370216138867,126.871458925601,강산빌라트,93000.0,131.88
37.530279450928,126.865097701486,동도빌라트,64000.0,143.52
37.5327676653749,126.832521187293,태형,95000.0,111.93
37.5342356394865,126.86925021254,스카이빌아파트,71000.0,84.51
37.5388800976494,126.870790763151,목동성원초원,94500.0,59.9
37.5254303771654,126.861307372056,중앙하이츠목동펠리시티,84000.0,65.92
37.5439764953607,126.87633124868,목동효성,35000.0,84.87
37.5347436477508,126.828378828506,훼미리주상복합,45000.0,100.3
37.5266182648665,126.858728983249,청원,40000.0,73.44
37.5231830230937,126.872430881274,청학,68000.0,34.15
37.5161794102017,126.855065108148,뉴목동,62200.0,84.31
37.5237432000588,126.846341974714,동도센트리움,150000.0,69.17
37.5361525415121,126.878730153557,목동가든스위트,114000.0,144.16
37.544995571746,126.86837300995,목동금호베스트빌,59800.0,125.37
37.5315874181946,126.828608714693,코아루2단지,53000.0,84.95
37.5215411974037,126.844518099421,장수마을,120000.0,59.8
37.5309676507482,126.867097955947,대원칸타빌3,174000.0,84.98
37.5391415775902,126.871708852576,목동이-편한세상,101500.0,134.77
37.5433501707598,126.869675374751,목동두산위브,46000.0,112.209
37.5268229605007,126.855664018405,삼백훼미리,50000.0,78.84
37.5276436075077,126.8502486547,힐탑이루미,66000.0,81.08
37.5434555927215,126.875525991764,정은스카이빌(959),39300.0,68.18
37.5390267439546,126.83019681167,대영월드(B동),60000.0,68.33
37.5315747668287,126.83555287572,길훈엔트런스빌,35000.0,84.96
37.5302552429753,126.829697860442,주함헤븐105동,35500.0,62.48
37.5274643814545,126.833416710357,온누리베일리,49500.0,53.74
37.5247337955297,126.837810066593,보람쉬움1,84000.0,58.15
37.5440526286777,126.829338214187,수명산SKVIEW,64000.0,84.94
37.5192287459656,126.872053010337,목동캐슬아파트,184000.0,91.08
37.5256633242838,126.873794491883,진도2,89000.0,108.69
37.5189928802422,126.845676287504,신정두산위브,29200.0,75.63
37.5258746584892,126.848331833358,양천홈타운3차,82000.0,41.22
37.5081291196913,126.84158898885,신정6현대,60000.0,84.6
37.523328012312,126.840092912064,롯데캐슬(1057-0),77000.0,59.88
37.5244394014215,126.864207166023,목동휘버스,59000.0,83.25
37.5317252519133,126.829591563073,코아루1단지,76800.0,84.83
37.5223085331443,126.845856564242,장수마을2단지동원데쟈뷰,89000.0,84.01
37.5385605252314,126.864060041611,세종그랑시아,63000.0,80.03
37.531381132542,126.866310807646,엘리온,75500.0,72.7736
37.5148264227271,126.826985099887,이펜하우스1단지,35000.0,84.51
37.5302717858592,126.829923301243,주함헤븐106동,38000.0,62.48
37.5341201228579,126.823828482294,금하뜨라네,39500.0,84.71
37.5241318019777,126.83864001718,보아스청와,59000.0,70.82
37.5246773491539,126.858747123451,주건드림빌,289500.0,79.19
37.5268543255661,126.875034766819,현대하이페리온,150000.0,138.2
37.5358655250957,126.88027265375,현대파크빌(907-23),29000.0,114.4
37.5374334008489,126.826835236474,근상아트프리즘,34700.0,71.07
37.5264656682433,126.845102148411,새롬,60500.0,56.54
37.5135514147541,126.835370168234,푸른마을2,22000.0,59.85
37.5248924243409,126.84592455442,예지보금자리74차,96000.0,58.9
37.5107833089061,126.84019342287,동일하이빌2단지,64000.0,84.955
37.5277175416247,126.858549293952,상진,37832.0,95.38
37.5167430241031,126.837507926137,신목동비바힐스,77000.0,58.9
37.5161106638708,126.830117649497,이펜하우스2단지,151900.0,84.51
37.5234409623785,126.874178335257,목동대림,175000.0,84.82
37.5363537343598,126.881122266784,부영2,92000.0,144.83
37.5118997336939,126.852950017333,신트리3,64000.0,84.97
37.549027015635,126.864485202727,신한이모르젠,85000.0,84.77
37.5125188976473,126.830802405083,이펜하우스3단지,70000.0,114.98
37.5206899854682,126.875418346765,파인빌,65000.0,63.4288
37.5142784223721,126.842497621202,대주파크빌,46000.0,84.89
37.5250628168519,126.842857208829,방주기픈샘,101000.0,63.152
37.5214982901868,126.874666551525,블레스빌,142000.0,79.43
37.5367309934181,126.882211593738,부영3,71000.0,89.61
37.525027565104,126.838828820465,양천벽산블루밍2단지,44500.0,84.77
37.5448275610448,126.863943992183,동원,63000.0,64.53
37.5421004597471,126.827927119403,신도브래뉴2차,30000.0,74.23
37.5218329338948,126.839593726087,상신,52750.0,56.62
37.5229198740895,126.841776956537,신성미소지움3차아파트,66500.0,66.14
37.5216230033302,126.845268947561,신월2차미소지움,49500.0,83.47
37.5302793298313,126.834986876047,신월6차보람,135000.0,59.232
37.5397949075248,126.88227613487,한신빌라트1,71800.0,119.1
37.5167049193055,126.847584380574,신안약수,51000.0,84.56
37.5180484528284,126.846439281936,신도신월1차,40000.0,65.2
37.5198125734033,126.841295520898,세제뉴타운,45000.0,57.32
37.5495183979505,126.874322479382,주상복합태진가람,78000.0,58.86
37.5494942680921,126.872823545766,송촌,45600.0,84.99
37.5590293774656,126.843050288041,등촌동성원,59000.0,99.29
37.5536085796559,126.840597935799,원다벨라빌,12000.0,84.985
37.5293923344363,126.843828657794,삼성다빈치(917-14),40000.0,14.35
37.5718089489682,126.818615837667,양진마니아,24000.0,80.09
37.529138863603,126.8412462356,현대홈타운(923-2),55000.0,31.69
37.5510104995572,126.834918887847,낙원연립재건축조합아파트,32500.0,79.21
37.5475139911076,126.876757454558,루나클래식2,80000.0,19.36
37.5512061585253,126.839664673036,청솔숲속마을101동,116500.0,83.69
37.5681771207777,126.818609024282,마곡엠밸리1단지,8800.0,84.77
37.528850565178,126.841934243018,한양아이클래스,67000.0,13.79
37.5525685323862,126.866830214461,염창2차보람,15500.0,59.87
37.5291163077695,126.841558757998,세교예지안6차,30000.0,25.97
37.5299992613461,126.861381727459,탑건화곡동진선미,48000.0,81.54
37.5507138361138,126.861280226632,등마루,58000.0,68.68
37.5538688660513,126.863840755019,심미에셈빌,15500.0,82.62
37.538093299765,126.840397320439,은하(400-60),80000.0,43.82
37.5514793830851,126.830596449698,천우네오젠(693),60000.0,147.46
37.5571689288767,126.844084543192,마곡에이치밸리움,32600.0,51.464
37.5299702926319,126.846621654773,드림시드아파트1차,65500.0,44.53
37.5533926883619,126.839524524189,청솔샤르망1004동,64500.0,84.53
37.5565095775898,126.843674186852,청솔해오름,75700.0,84.8729
37.559838467768,126.847028675022,"진로,미주아파트",55200.0,84.96
37.5368176662892,126.857815558701,화곡3차보람,19000.0,84.79
37.5458357833768,126.845700293217,신원2차(24-130),20000.0,64.03
37.5316820658206,126.846038660082,벨라팰리스,49500.0,24.71
37.5542641910952,126.848362704591,올림푸스,68000.0,77.58
37.5519375780382,126.839856397012,청솔숲속마을102동,35000.0,84.62
37.5308485816949,126.846062774269,우성(343-75),9200.0,65.04
37.5300568183742,126.844098343553,팔라이스타워,23850.0,12.6
37.5419139646648,126.847052970488,한솔(61-116),52000.0,59.9
37.5795643700213,126.814003315388,방화메이빌,70000.0,51.8976
37.5659516762396,126.807963327022,형제,68500.0,76.83
37.5549573817761,126.858119374355,등촌파밀리에더클래식201동,63000.0,62.69
37.5534505383876,126.837945675536,내발산우신웨스트빌,31500.0,84.38
37.5286809679879,126.843740652851,삼도,106500.0,70.84
37.5504709196995,126.876961942655,리버펠리스4동,80000.0,132.13
37.5541245097483,126.841080078124,롯데1차,58700.0,84.512
37.5772488016698,126.817514165461,한숲마을대림,68700.0,59.94
37.5746440462561,126.812182016823,보람,21200.0,84.96
37.5296972430114,126.842007125024,리치아파트,52500.0,19.81
37.5730344439131,126.819061476376,마곡현대아파트,53500.0,59.92
37.5788088478587,126.816163629115,동일스위트리버2차,81500.0,59.94
37.5604883080818,126.85832664704,보광드림타운,75000.0,112.83
37.5702456973437,126.820484526272,마곡경남아너스빌,74000.0,59.91
37.5463797260248,126.834014997519,희훈리치파크,130000.0,84.62
37.5592884593333,126.81932504091,마곡엠밸리10단지,90000.0,84.89
37.5612004432942,126.85578640067,강나루2현대,83200.0,84.99
37.549652571474,126.860380385492,태진아름,120000.0,84.81
37.558925978268,126.822886058334,마곡엠밸리12단지,89000.0,59.79
37.5509348556412,126.871227487929,보람더하임105동,38200.0,103.37
37.5298389090107,126.859724829043,우영,82300.0,62.47
37.5500695849946,126.871602195238,삼성한아름,27000.0,84.89
37.530384213943,126.846414900817,디아인스,92500.0,23.93
37.5745942801032,126.837612448089,마곡금호어울림,89000.0,84.948
37.5718664207178,126.816161904142,강서센트레빌3차,81000.0,84.4
37.5540389922246,126.854635331277,화곡보람,59000.0,84.51
37.5541077404634,126.86207258551,등촌6차보람,42000.0,61.908
37.5310000178025,126.846045832003,우성(343-39),43500.0,67.02
37.5349940185204,126.859678741937,상진지오벨리,13000.0,68.22
37.5386640775877,126.846371782773,오케이B,18000.0,36.0
37.5290173948279,126.844008076987,팔라이스아파트먼트(915-8),45000.0,30.14
37.5427519726769,126.835644198506,제이월드,89500.0,81.3244
37.5729686283587,126.816060258254,마곡센트레빌,45000.0,59.607
37.5733419990387,126.80830104587,홍익아파트,62000.0,70.44
37.5713604871978,126.81765599351,마곡승윤노블리안아파트,75500.0,76.76
37.5710512329627,126.822062820522,마곡일성트루엘아파트,59000.0,59.978
37.5549253347734,126.839429228525,신세계4차,70800.0,73.85
37.5391059418184,126.835415155454,강서뉴타워,84800.0,82.88
37.5481776604121,126.843036379253,우장산에스케이뷰,71500.0,84.97
37.577043495555,126.80843408324,방화동진로아파트,120000.0,84.63
37.5548546834697,126.851250232655,그랜드아이파크,20800.0,181.17
37.5301621496422,126.844374852618,성재센트리움,21800.0,28.39
37.5302210985916,126.849043816867,산내들,57000.0,27.47
37.529361876651,126.855799412296,신도금잔디,28400.0,84.92
37.5299780570605,126.839845885211,성재,68500.0,62.41
37.5548397581998,126.858759473823,등촌파밀리에더클래식101동,62000.0,49.78
37.5487143270347,126.833712880911,광성금강,21000.0,59.1712
37.5291042720468,126.844570508653,세교예지안5차,71700.0,29.95
37.5540619479456,126.870404219284,이너스내안에201동,27000.0,84.72
37.5295466820104,126.84342501291,프라임하우스(916-5),116000.0,40.25
37.5516285043884,126.870295152244,염창1차보람더하임,35500.0,84.98
37.529394330666,126.842955938925,천우네오젠9차,29900.0,55.93
37.5568153801272,126.85322407418,지엠벨리,89300.0,27.57
37.5718931011357,126.808517006052,개화산경남아너스빌,87000.0,125.56
37.5489294807352,126.872117460239,극동상록수,92000.0,84.96
37.5503706507753,126.825729445463,마곡수명산파크6단지,26000.0,84.53
37.5309364202804,126.839160040892,정원,74000.0,60.95
37.5551351741415,126.843249038454,타워힐101동,39000.0,84.9095
37.5473050125372,126.862368475795,등촌퀸즈포디엄삼익,74000.0,44.8
37.547228901124,126.834646136195,타워빌,53000.0,81.71
37.5557301490906,126.86029571073,코오롱오투빌2,103000.0,59.95
37.5554016793389,126.866556386664,강서쌍용예가,55000.0,84.9025
37.5548123316097,126.840013213625,천우네오젠5차,27500.0,70.54
37.5590496638778,126.842316960714,마곡루나플라체,42000.0,22.05
37.5312552388534,126.846020983026,성광,79500.0,60.72
37.5720215579008,126.81068023575,방신서광,40000.0,113.3376
37.5376431232619,126.86119073127,정우아파트(570-11),47000.0,83.31
37.5357166260267,126.843685242147,중앙화곡하이츠,99000.0,56.88
37.5542842133272,126.850925658956,강서그랜드아이파크주상복합,75000.0,117.97
37.552461665687,126.846487416103,우장산롯데,30000.0,84.98
37.5324604591031,126.844745583939,태흥그랑뷰,78000.0,84.42
37.5723114753777,126.818701895134,마곡보타닉경남아너스빌,68000.0,84.9941
37.5530862249558,126.841165009891,청솔102동,119500.0,126.72
37.5699325188665,126.821678241396,마곡푸르지오,169000.0,114.72
37.565321846623,126.820481062137,마곡엠밸리6단지,58500.0,114.98
37.5543217701286,126.838909708091,천우네오젠6차,58500.0,83.83
37.5663695039625,126.812073305021,청성(877-0),39800.0,67.876
37.5308301396281,126.846292138938,계명아파트나동,115000.0,74.79
37.5551770674789,126.862401758505,대동황토방2,94000.0,114.99
37.5622291386486,126.854195547538,가양우성,39000.0,84.87
37.5375247353266,126.855632644785,푸른숲2차(474-18),64500.0,68.097
37.5690826437317,126.807915105075,방화동2차태승훼미리,83000.0,83.85
37.5579898372935,126.854030081422,보람(640),36500.0,83.07
37.530661376838,126.846080468783,다담센트빌,56000.0,52.89
37.5542454102678,126.861839198586,천우네오젠,82000.0,84.79
37.5552005985963,126.863891749666,삼성한사랑1,106500.0,84.99
37.5566842439508,126.866552401948,강변한솔솔파크,73000.0,84.97
37.5525770268127,126.870826873683,태진드림피아,62500.0,79.825
37.5502313795594,126.832151223827,유니드,159500.0,73.51
37.5693769643388,126.820606823603,마곡엠밸리2단지,49500.0,114.91
37.5498427418339,126.867951321821,등촌제이스카이,39400.0,39.87
37.5290596557662,126.843330433231,한신베네스트아파트,52500.0,57.67
37.5541713421327,126.840397668813,우장산태승훼미리,80500.0,76.87
37.5528773294775,126.873826815673,염창3차보람,90000.0,84.98
37.5680972870618,126.822338113508,마곡나루경남아파트,59900.0,84.29
37.5522385998887,126.832009449196,내츄럴아파트3차,59990.0,84.4
37.5476075150894,126.843788400633,우장산휴먼빌,33000.0,84.76
37.5364341036552,126.857660147509,양용아네스,89000.0,72.14
37.554612829484,126.864162394395,한사랑2삼성,60000.0,84.96
37.5505356760612,126.873695190425,삼현팰리채,70500.0,66.78
37.5682727499685,126.808198355281,방화3차우림필유,38000.0,84.57
37.5275121042157,126.84326828011,화곡동성재,38000.0,73.32
37.5511338439055,126.865452585378,한울밸리움,149500.0,24.08
37.5568364485914,126.824616701317,마곡엠벨리(14단지),39500.0,84.95
37.5383617579482,126.834992940937,화곡1차보람더하임,63300.0,55.48
37.5680830400427,126.849068747878,한보구암마을,32500.0,59.85
37.5517536174218,126.849250046343,강서크라운팰리스,91700.0,29.85
37.5698507539742,126.844048489743,강서한강월드메르디앙,107500.0,84.9
37.554378050436,126.830206010388,마곡수명산파크1단지,33500.0,84.53
37.5298199838492,126.842700493851,한백아파트,65337.0,60.42
37.5712896980823,126.808179412194,신마곡벽산블루밍,90500.0,59.7592
37.5540084096723,126.847392667674,우장산한화꿈에그린,80000.0,120.11
37.5516297228771,126.871906542332,삼성하나로,54800.0,84.78
37.5301648129326,126.843935091187,유림노르웨이숲(919-1),59000.0,76.23
37.5591969717505,126.856290173496,등촌라인(조합),170000.0,59.91
37.5648812125749,126.823376663134,마곡엠밸리7단지,62000.0,84.91
37.5523011467784,126.845068499251,길성그랑프리텔,44000.0,73.84
37.5376919626751,126.850991848148,태창네스트힐,75000.0,71.98
37.5559780461935,126.858281994359,제일(코오롱),109000.0,84.83
37.551385614756,126.873552523552,염창힐스테이트,83000.0,84.603
37.5564274064151,126.857486090743,등촌동보람쉬움아파트,77000.0,84.51
37.574703238848,126.814976041476,방화동동부센트레빌(875번지),72000.0,84.97
37.5536762585056,126.832028969476,태승훼미리2,8900.0,84.83
37.5546791444604,126.852884447161,강서동도센트리움,62000.0,14.677
37.5792934130853,126.815824055163,치현마을동일스위트리버,70500.0,59.9813
37.5746050093498,126.810195416508,"월드메르디앙201동,202동",26900.0,83.42
37.5297560798459,126.843428987447,위하우스아파트,15800.0,30.18
37.4874856768621,126.88751858982,은진빌라,25000.0,56.96
37.4869682580697,126.888787444729,(780-72)삼익빌라,65000.0,58.14
37.5019938582138,126.888845797315,희훈타워빌,38000.0,142.59
37.4963520741754,126.839777158032,한백고은,38000.0,84.69
37.4863679237264,126.877325059471,현대로얄,31000.0,68.63
37.4894865027017,126.832887546313,대산,15400.0,72.57
37.4851028912973,126.887823486082,(798-24),18800.0,49.03
37.4863573874862,126.888609588192,(792-54),14700.0,32.47
37.4866068597999,126.885947790907,(807-23),26000.0,39.81
37.4872032251096,126.888675043769,(780-50),11000.0,50.34
37.501909971739,126.888460389523,종인아네스트,33700.0,16.04
37.4855718547383,126.820867894574,동보수목원(16-36),74700.0,76.72
37.5015134393656,126.861321540533,한효,53800.0,82.48
37.4823791893915,126.898328058794,우성에비뉴,43000.0,84.9915
37.5061129512048,126.859468279007,하이리빙,34300.0,79.54
37.4971846604984,126.831086473768,강남그린,18000.0,76.3
37.4964464514413,126.89028713605,구로오네뜨시티,55000.0,16.71
37.5032363970964,126.891617370429,예원아파트,51000.0,94.63
37.4791210900611,126.893963682082,미래하이츠,51800.0,96.94
37.4988429574306,126.862794471861,"우성,현대아파트",37500.0,68.7
37.5009278554889,126.843492595613,거성푸르뫼,14000.0,59.89
37.5005587613295,126.891980415953,하나세인스톤3차,20500.0,19.99
37.4855139219831,126.88790880299,유진빌라,18000.0,54.42
37.486727073899,126.888708314364,(792-9),14800.0,45.18
37.4871188227603,126.885865262876,(745-57),42000.0,35.46
37.4977546294044,126.84591021456,오류동휘버스,13700.0,79.92
37.485009235494,126.888637255993,(797-5),18000.0,33.12
37.484874213691,126.888678951908,(797-26),103000.0,35.52
37.5056826985762,126.8828227159,대림e-편한세상6,49700.0,84.816
37.4963094418984,126.882816102903,M센트럴뷰,8200.0,48.61
37.4954175987872,126.843373824053,포스시티,40000.0,14.29
37.4883733496462,126.825988226655,유한수목원,28000.0,74.94
37.5070902641957,126.855136970363,진성,15000.0,60.39
37.4867448733731,126.888569777722,(792-6),30000.0,28.84
37.4979645978861,126.830790579236,다청림(104동),42500.0,59.98
37.500085752251,126.843542642515,거성푸르뫼2,36000.0,59.9
37.4976243410372,126.831457875335,다청림(107동),70000.0,79.81
37.4783811147794,126.841304041942,천왕이펜하우스6단지,17000.0,84.97
37.4881092592086,126.888177767052,(768-2),23000.0,40.41
37.487075747815,126.888786946174,(780-58),72000.0,33.52
37.4825290874428,126.84016859489,천왕이펜하우스3단지,21500.0,84.98
37.4948283467376,126.842024858993,이좋은집,50000.0,36.69
37.498445626529,126.891286390239,동도아르떼빌,45500.0,83.01
37.5065646155269,126.861059985494,예주유니츠,43400.0,78.29
37.4954831409599,126.890725044704,케어빌(98-8),52000.0,77.9
37.4961273296972,126.891965086918,우진체리쉬,26500.0,77.65
37.4951158665141,126.890019268396,마인드에코프라움,95400.0,32.75
37.5035567212154,126.892127870292,신도림LG자이,18670.0,84.952
37.4856478798865,126.887885650061,대성,64000.0,37.14
37.5036640700126,126.885748587163,일신건영,70000.0,59.97
37.4970375214433,126.874207041468,영화참마음,30000.0,84.63
37.4859585081393,126.821007402217,동보수목원,75000.0,59.82
37.4842666467638,126.820091196301,현대홈타운스위트,52000.0,84.9804
37.4788964928257,126.895304412251,효성,90000.0,84.87
37.5068509675721,126.877954767058,대림3,74000.0,114.55
37.5043033937635,126.86410600678,마젤란,32000.0,84.923
37.4871348924332,126.889789564763,(777-3)두암호은리버빌,72700.0,54.02
37.4860990493366,126.837387757461,천왕이펜하우스1단지,49500.0,59.94
37.4996138229484,126.890163306273,아스타빌,53000.0,78.18
37.5008467014671,126.88406850513,덕영드림,48500.0,56.19
37.4982785005999,126.876105159923,현대의보아파트,17500.0,82.28
37.4854733038078,126.888022044408,풍안주택,70500.0,44.52
37.4828042943059,126.849247127999,영화아이닉스,69500.0,116.21
37.5078312535253,126.887381527736,신성은하수,9500.0,59.88
37.4953373688851,126.890444812408,비즈트위트그린,47500.0,15.11
37.4958657705491,126.817575770016,리치안풍산,15800.0,84.94
37.4952204802335,126.890220401587,파인마루오피스텔,60000.0,18.9
37.4966351639805,126.857942099077,신개봉삼환,11000.0,84.99
37.4986522510949,126.891116685565,비즈트위트블루,35000.0,16.04
37.5004450537744,126.891684509507,한스타워,58500.0,59.96
37.5014163184811,126.888850837865,우원그린빌,28500.0,84.206
37.4891087538994,126.851038992914,거성,38000.0,47.52
37.4940850896969,126.893832728609,대림우성2,18500.0,43.79
37.4877919920289,126.887774010574,(749-46),44000.0,35.31
37.5086321795224,126.852971017596,삼익(1단지),11500.0,59.82
37.4969785298244,126.891005465235,해담채3,55500.0,13.39
37.4991953022095,126.856616717011,더헤리츠,58300.0,56.0
37.5048493581575,126.856599231769,양우,69000.0,84.96
37.4754939111357,126.816123621092,항동제일풍경채포레스트,23000.0,84.6614
37.4873208065274,126.887722816106,구로궁전빌리지(771-42),88500.0,59.4
37.4847091509638,126.838501308614,천왕이펜하우스2단지,38500.0,84.97
37.4929259405727,126.882139975896,한일퍼스트빌(415-37),53000.0,84.59
37.4832249679823,126.889596088871,동일센타시아,60000.0,35.28
37.4827060921047,126.899930856333,미래타워,54000.0,84.97
37.4884581780074,126.89602502071,구로현대,71000.0,56.49
37.4988452187698,126.880552645833,중앙하이츠(1269),42000.0,59.73
37.4885415197049,126.892996037628,성락,86500.0,57.33
37.5061640305761,126.862137994282,고척LIG리가2차,16000.0,84.98
37.4884524621665,126.888092338282,(752-17),63000.0,33.56
37.4956348340034,126.892551679319,성삼하이츠,17750.0,78.88
37.4970880284552,126.89172000441,비즈트위트레드,17000.0,21.49
37.4879230653019,126.888224629991,(770-54),72000.0,45.6
37.495322650409,126.886029866482,보광,27900.0,73.89
37.4955376197127,126.841756376556,오류동삼전솔하임,14900.0,37.759
37.4955829797241,126.890343922923,대림역와이즈플레이스,22500.0,24.647
37.488489835342,126.888167814767,(752-19),65000.0,59.76
37.4994367824856,126.890949079827,대림역대성스카이렉스,60000.0,73.2
37.5025479563558,126.882948285714,구로에스케이뷰,49000.0,84.945
37.4936986929115,126.860969951003,상우,65500.0,59.4
37.4916084758634,126.841527883195,오류동푸르지오,77000.0,84.936
37.5119722191003,126.884254440618,현대홈타운아파트,64000.0,59.73
37.4999944583683,126.890314741102,새솔금호,49000.0,84.89
37.4962379637124,126.891463174302,순영웰라이빌2차,90000.0,65.54
37.5039563124013,126.881857090192,신도림팰러티움,57000.0,84.51
37.498257815508,126.846721709913,동도센트리움(70-12),8000.0,119.94
37.5021157892034,126.891391108359,비즈트위트오렌지,20000.0,15.6
37.4860567967881,126.886887322161,(803-13)구로아트빌라8,71000.0,59.44
37.4882786172515,126.832381753098,금강(343),17000.0,60.054
37.4939983113012,126.840795387265,오류동역솔리스타,46000.0,38.23
37.5043353109062,126.856802204555,경남2,50000.0,59.96
37.4705457449469,126.899547680668,서초파레스,38500.0,79.7
37.4768051853863,126.906621157405,장미아파트A동,37000.0,67.21
37.4649012271329,126.892629927499,리버스타운,59000.0,54.4
37.461012860734,126.893069638924,이랜드해가든,53500.0,84.927
37.4752120394614,126.896068358533,한아프라임102동,39000.0,84.95
37.4662058977236,126.890477275406,태영아파트,35000.0,59.86
37.4611676510962,126.900279217997,호정타워,51350.0,67.08
37.4545350777047,126.897595636244,시흥목련,45000.0,58.4
37.4731435458287,126.891310725427,드림캐슬2차,30000.0,84.6
37.4561864907243,126.899528461154,산호시티빌,43300.0,41.58
37.4710504000703,126.906348301875,세심아파트,9000.0,84.53
37.4783856787945,126.890497715585,가산지웰에스테이트,49000.0,15.95
37.4674569169307,126.895005775673,독산현대,34000.0,58.72
37.4690762126091,126.904902232038,동심,67850.0,48.1749
37.4712461478703,126.894132393752,청광플러스원,52000.0,84.962
37.4673141651969,126.89910651287,대덕트윈빌,39000.0,59.56
37.4412151427899,126.906766423754,보르미아파트(948-9),10000.0,64.54
37.4781250924735,126.889803702217,비즈트위트바이올렛5차,34000.0,12.19
37.4720837712966,126.902235700843,설악솔내음,60000.0,51.59
37.4459375019143,126.902367711025,SM엘루이,28500.0,84.98
37.4387217355116,126.90380729279,백운한비치5,27000.0,39.27
37.4558386091227,126.907818376125,시흥(817-29),38000.0,44.13
37.465485056215,126.901928693033,세진(1037-31),37000.0,60.87
37.4707548636939,126.906455724684,정심아파트,41700.0,70.84
37.4358454462315,126.905962247412,더유엘아파트,30000.0,59.8926
37.4623823056138,126.91281295372,유승셀르빌,53000.0,83.3
37.4671488507359,126.892786325682,계룡아파트,47500.0,59.34
37.4683432379199,126.893292290962,진도3차아파트,39000.0,59.34
37.468518072931,126.900997107166,상진지오벨리A,42000.0,66.5
37.4603497473154,126.907870031856,한빛무궁화101동,32700.0,74.252
37.472820282158,126.901182937249,독산오르페움타워,70000.0,37.806
37.4575358863909,126.897580242085,시흥베르빌,71500.0,81.16
37.4759170971238,126.899314724455,독산동한양수자인,16000.0,68.307
37.4791075047354,126.889078461826,G밸리페트라힐스,48400.0,13.76
37.4540034379335,126.910648961274,현대(209),9300.0,82.53
37.4550181232559,126.900994108649,와이즈플레이스,14300.0,14.22
37.4865912720053,126.900182794019,G밸리소홈,45000.0,16.1
37.5159429980559,126.909735296927,라르파크,12400.0,30.2372
37.5275709581712,126.907961079352,훼미리하우스138,57000.0,14.28
37.5161050142172,126.912753885131,동도하이츠,45400.0,91.46
37.5177534119374,126.913137240393,여의도더리브스타일,65000.0,30.2696
37.5147050629875,126.924570266199,여의,11000.0,67.2
37.518492825972,126.903234644155,영등포그랑그루,69000.0,12.1
37.5165365466663,126.913300291532,순영웰라이빌,105000.0,84.88
37.502963391709,126.909607748113,포레나 신길,67800.0,84.5802
37.5145183403065,126.925366645972,대방전철,79000.0,44.35
37.4865498147227,126.902434850415,신대림자이1단지,182500.0,84.14
37.5221520969759,126.933684558017,대교,80500.0,95.5
37.5261331311123,126.885582081027,삼천리,12500.0,59.95
37.5257956366211,126.908789890529,훼미리하우스117,22300.0,16.98
37.4980259841179,126.917636403278,대방,10000.0,37.96
37.5178719966679,126.90711500402,포레스트힐시티,10800.0,13.53
37.5162128666877,126.921218310275,여의도리버뷰,55200.0,12.96
37.4947718406647,126.904387593154,한신휴2차,102000.0,59.89
37.5298846497326,126.896132268182,유원제일,70700.0,73.98
37.5447907549387,126.887721437415,리츠뷰,148500.0,58.08
37.5286609363432,126.902942298813,당산롯데캐슬프레스티지,13500.0,84.98
37.5264537727945,126.908497893886,THESILK,49000.0,20.51
37.514320688342,126.923858052485,삼두,73000.0,43.65
37.4995040835855,126.919068972523,동훈노보빌,90000.0,84.81
37.5242567260456,126.911274883943,브라운스톤영등포,58100.0,84.9
37.4944781124108,126.903500958255,한신휴1차,400000.0,59.89
37.5186310967174,126.939617870308,리첸시아,174000.0,195.88
37.5273143682242,126.901285885351,당산반도유보라팰리스,125000.0,157.87
37.5284487829851,126.901242531417,당산금호어울림,75000.0,116.98
37.5091665664743,126.895343471061,도림청구,61000.0,84.96
37.5337074764094,126.900065499014,반도유보라,223000.0,84.58
37.5221528640161,126.935558553457,화랑,61000.0,95.8
37.5232298083945,126.908965642423,근상프리즘,200000.0,82.79
37.51742468713,126.927065240738,대우트럼프월드II,57000.0,123.78
37.5084064349722,126.914921289635,신기목련아파트,31300.0,59.4
37.5236061539755,126.88952812676,어반힐,91000.0,25.58
37.5013715554038,126.907244581408,신미,9900.0,75.48
37.5056131906423,126.908363980827,신길레전드힐스,47000.0,13.74
37.5241606059469,126.909869180414,여의휴젠느,195000.0,35.42
37.5202422355855,126.926374275404,롯데캐슬엠파이어,239000.0,120.41
37.5175494599617,126.932336554757,대우트럼프월드Ⅰ,109000.0,152.62
37.519074190752,126.897615078392,문래금호어울림,10000.0,84.97
37.4952957246824,126.898075565712,쌍용플래티넘S,14000.0,18.24
37.5177478970839,126.913479989374,스테이72여의도,290000.0,12.4
37.5181723412696,126.926053586291,여의도자이,78500.0,148.94
37.5111808590706,126.910599170661,선원가와인,18700.0,80.376
37.5367128136412,126.897912412559,약산,85000.0,37.24
37.5022707105266,126.91237370729,남서울,12500.0,42.98
37.5175014977279,126.910728840444,여의도씨티아이,124500.0,12.59
37.5163766907311,126.892756094025,국화맨션,63000.0,84.71
37.5038414805746,126.896607959674,성원(650),34200.0,59.63
37.5250516747965,126.899249519511,당산계룡리슈빌1단지,10500.0,16.536
37.4869194626454,126.900555035603,(1101-1),91500.0,14.46
37.497262622131,126.914425840731,보라매두산위브,77994.0,84.95
37.5066122035087,126.910094992544,신길AK푸르지오,280000.0,49.4552
37.5231044207595,126.930795195012,수정,65500.0,150.65
37.4951135958709,126.902736157191,신대림신동아파밀리에,51000.0,59.9754
37.5170161035424,126.88806349814,문래대림,250000.0,84.92
37.5249360133869,126.932097633851,삼부,31500.0,92.13
37.519274930489,126.912155529644,여의도리미티오148,79000.0,24.3859
37.5155794906081,126.892963100621,문래우정,85000.0,59.76
37.5302222180207,126.898263606423,삼익플라주,170000.0,71.14
37.5330576470523,126.898553578207,유원제일2차,89500.0,123.76
37.5379740219102,126.890945257143,동보,516000.0,84.48
37.5269135314362,126.931161838364,서울,79500.0,139.31
37.4973007949743,126.912296623057,우창,54000.0,55.9
37.5222197194343,126.906688343966,현대프라자,54400.0,59.96
37.4963055236447,126.952376463075,숭실골드,48500.0,76.23
37.5075742823137,126.952079201101,오크밸리,70000.0,78.42
37.5082524453828,126.9589560515,중앙궁전빌라트,59900.0,121.68
37.4931092356809,126.961352912016,현대201동,45000.0,59.91
37.4984577528338,126.933682899663,다온아파트,108000.0,48.88
37.507263336622,126.941462197456,은성,14500.0,61.81
37.4873776781875,126.966755550647,사당휴브리지(206-127),39000.0,12.42
37.5138337035589,126.929080970619,(99-1),62000.0,63.925
37.4923512246782,126.925160742948,보라매우성,62500.0,58.86
37.4831000843788,126.967523568626,동문아트빌,78000.0,99.66
37.5035219526724,126.953970589564,상도팰리스,54000.0,84.86
37.5019212503173,126.952216376483,대영테크빌,95000.0,84.64
37.4869196887028,126.968370617854,대창센시티,70000.0,102.6453
37.5118209875634,126.933161415959,신한토탈,73500.0,59.4
37.4831205098499,126.967098777696,공감지음포레뷰아파트,14000.0,72.27
37.4969425476718,126.953538911612,강남(488),160000.0,47.14
37.4845094704963,126.980303177741,이수자이,120000.0,120.81
37.4982647180084,126.956465462425,삼환나우빌(520-0),74500.0,121.346
37.501322376271,126.96309300422,청호,73700.0,59.85
37.4824711263461,126.966364603949,갑을명가,50000.0,81.6491
37.4775535161435,126.972294775051,해맑은,89500.0,82.89
37.5115251308272,126.95193992896,극동강변,73000.0,84.73
37.4935684967854,126.935245916317,상도2차갑을명가,151000.0,84.33
37.5117543393136,126.933526925187,비전,29000.0,122.52
37.4936772812034,126.933520672882,청운아파트,126000.0,61.7
37.5054524889319,126.949235355135,대우유로카운티,68000.0,133.67
37.5141579169603,126.928536487014,한국개나리,78500.0,59.85
37.5077338671126,126.948274032852,형인한강,67500.0,76.05
37.4784000745739,126.973741366771,르메이에르,111000.0,59.4
37.4913316020645,126.924104833984,보라매아카데미타워,52500.0,115.54
37.4993586732443,126.953050228785,정호힐사이드,69000.0,81.26
37.4940074292064,126.959411307999,상도현대,80000.0,59.72
37.4802614389001,126.969141101002,진흥아리엘,106000.0,84.9713
37.4863264672324,126.905217202756,동작협성휴포레시그니처,157000.0,84.9464
37.5120625386823,126.930954354311,대방2차e-편한세상,51500.0,131.637
37.4961562713121,126.922650330555,펭귄,75000.0,63.04
37.5060613849581,126.923059821548,신호리치빌,114000.0,84.69
37.4901933009791,126.971479473877,사당롯데캐슬2차,65000.0,84.766
37.4772989539337,126.969270524011,삼익그린뷰,76000.0,59.1605
37.5142145692016,126.92970283408,우정,51000.0,59.89
37.4773748541046,126.973508944186,오림센트빌,56000.0,85.63
37.4967249220654,126.927228428735,신대방,42000.0,59.6
37.4913737806717,126.969591550249,삼성그린101동,115000.0,69.6
37.4894876099441,126.908593434869,신대방경남,99000.0,124.22
37.5122226914266,126.953068073811,한강쌍용,80500.0,59.64
37.487399031884,126.967729757633,경남아너스빌2차,84500.0,84.96
37.4935295589991,126.95743119907,상도동삼호아파트,135000.0,84.52
37.490782226725,126.923219894058,롯데관악타워,12000.0,172.51
37.4999676640979,126.92755539027,진성마블로스,89500.0,14.4
37.4883223021717,126.969452351771,현대주택조합,87500.0,84.99
37.4886969037068,126.962444639513,사당자이,19700.0,60.0
37.5049868628963,126.937943035198,상도휴엔하임,32000.0,16.84
37.4928787675848,126.933929029936,보람(685-100),48000.0,68.58
37.4682335856091,126.939354007981,관악,55000.0,56.39
37.4879663964424,126.924475607786,웰피아,60000.0,81.94
37.4765607248452,126.967142805429,늘푸른3차,72700.0,82.87
37.4743036544184,126.952457013915,로얄클래스,75000.0,110.33
37.4755122244938,126.955584077482,관악교수,80000.0,120.64
37.4816901842801,126.940450236811,금강아미움(105동),45000.0,71.3453
37.4829679732523,126.909486329086,윤정,30500.0,75.45
37.4703310510792,126.917234968524,삼성아트빌(715-32),42750.0,57.37
37.464371909909,126.930769675582,동마,58500.0,59.99
37.492337574182,126.945486196561,하이캐슬,31300.0,85.0
37.4824444142471,126.947672564022,프라비다M,59000.0,30.12
37.4725797421886,126.972990840563,예촌그린,50000.0,99.32
37.4847992170933,126.928306329336,신림더루나,55000.0,25.92
37.4847502237736,126.909559594428,동훈CDI,75000.0,84.39
37.4729079254592,126.966132504824,아이펠리스,57000.0,111.78
37.4836558402702,126.937344252005,성우,77000.0,59.97
37.4735450699404,126.976280806081,예성2차그린캐슬,18300.0,84.17
37.4867051102131,126.947486419667,더블유에스타워,94500.0,19.63
37.4732483708746,126.976752202374,예성그린캐슬1차,12500.0,84.76
37.4833905196809,126.927468397174,푸리마타운,70000.0,12.25
37.4760062348057,126.977967011926,현대이즈빌,64700.0,84.99
37.481735489585,126.951445826851,신원메트로빌,40000.0,84.6
37.4744718179116,126.934454871385,GS파크뷰,50500.0,47.26
37.4812498521923,126.93867111383,무학,12250.0,59.38
37.4887749676672,126.916710658952,보라매해담채,75000.0,13.23
37.4826033513701,126.930385514755,청암두산위브센티움,75000.0,84.505
37.475057339917,126.970360358914,닷컴힐즈(1653-3),57000.0,49.01
37.4796062178175,126.923646934816,에셀비전21,72500.0,84.64
37.4712100423475,126.973864050301,예성그린캐슬III,59000.0,84.38
37.4636367624738,126.932619150746,청화,140000.0,81.35
37.4796467988893,126.952850691903,대우디오슈페리움1단지,58000.0,130.18
37.471210937608,126.973036438531,흥화브라운빌,58000.0,84.95
37.4731369528296,126.973503204822,노블스톤,84700.0,100.42
37.4818032848404,126.940141035067,금강아미움(104동),60000.0,71.3453
37.4763798666656,126.966729559132,관악캐스빌,68000.0,91.67
37.4716461056597,126.929357003298,우정하이비전,44000.0,84.58
37.4742156197726,126.915514462064,미래한건(1563-78),48000.0,74.98
37.4681855405961,126.941820841953,LIG5차,57000.0,59.9
37.4860482776091,126.912270205013,신림동이모르젠,56000.0,80.23
37.4748038372563,126.97016736682,새진(1653-10),74000.0,83.55
37.4750223279738,126.970150774386,닷컴힐즈,12800.0,57.77
37.4822302925223,126.947375018938,마에스트로캠퍼스타운,88000.0,13.15
37.473197834053,126.97822264929,예성그랑펠리체,58500.0,73.55
37.4891219909489,126.921922382389,보라매갑을,51500.0,55.91
37.4751745207614,126.954621750944,코스코수,39500.0,75.65
37.476620349846,126.916437217973,신화아트벨리1차,89500.0,62.83
37.4802678000181,126.953141656992,대우디오슈페리움2단지,50200.0,84.93
37.4747718046202,126.935346134155,신림스카이아파트,85000.0,56.45
37.4713903407759,126.964853955359,은천1,64000.0,84.83
37.4718153153873,126.972172767367,관악산대창센시티2차,85500.0,84.46
37.4731882298145,126.916318606825,신림동부센트레빌,18000.0,84.93
37.4791097585906,126.950336729758,서울대입구한양아이클래스,79400.0,16.58
37.4925114527856,126.946040606252,벽산타운II,42000.0,79.28
37.4758854544527,126.954018181926,위너스이즈,44500.0,59.74
37.4859324806254,126.953013857026,카후나빌,43700.0,55.09
37.4753595847167,126.929602562738,산장그린,53500.0,71.85
37.4743568077266,126.971846577489,팔라시오,85300.0,72.25
37.4716970614711,126.97356227143,남현동한일유앤아이,84500.0,84.99
37.4818269029854,126.940880103894,금강아미움(103동),9300.0,71.1203
37.487426640839,126.929494339284,코스모그린,73500.0,12.21
37.4878124150224,126.957233855036,브라운스톤관악,59800.0,59.67
37.4847156167784,126.910495261784,제창그로힐,29000.0,59.52
37.4928689744558,126.934140269853,(685-103),84000.0,51.42
37.4820450100656,126.94028861497,금강아미움(101동),64000.0,71.1203
37.4774135280588,126.953688367042,신성새실마을103동,67500.0,62.38
37.4843947076545,126.935246937652,로마,55000.0,76.03
37.4694450979755,126.966223823737,새진6차,69000.0,83.03
37.4834486384245,126.9589747116,관악월드메르디앙,35000.0,79.27
37.4631575523136,126.919701932657,월드,36000.0,84.8
37.4738129160693,126.924080384108,늘푸른,69000.0,79.18
37.4876370620473,126.92473283655,보라매스카이아파트(1739),40000.0,81.38
37.4781978768156,126.913487959533,흥원,106000.0,118.8
37.4827164165708,126.95322956114,관악위버폴리스,17000.0,107.08
37.4810914834927,126.950660468873,서울대역마에스트로,57000.0,19.46
37.4746098085233,126.980831690907,다청림라인씨티,50770.0,41.93
37.4697051500318,126.919101109642,그대家,43300.0,59.6
37.4659934313186,126.931028959884,태흥,50000.0,59.86
37.4651611978444,126.937736894087,금호(1차),60000.0,84.96
37.4721459611276,126.911763045766,신림동쌍용아파트,45000.0,84.88
37.493992706717,127.01774166176,지에스타워,525000.0,26.05
37.4853058456492,127.003304849039,더미켈란,161700.0,267.35
37.48573033233,127.006956063088,레미안서초6차(1520-9),105000.0,113.94
37.4876091763509,127.020935536705,(1617-21),18800.0,111.16
37.4916489530151,127.028955295374,urbanplace,70000.0,20.998
37.4915797722064,127.029972734806,서초동대우디오빌프라임,83000.0,57.88
37.4654682308023,127.035265465852,성영,139800.0,83.12
37.4878657548009,127.023026523242,서초극동스타클래스,44250.0,84.3
37.487242236626,127.027736052567,서초자연인아파트(101동),207000.0,40.45
37.4797223864045,127.007279420326,서초5차e편한세상,40000.0,158.24
37.4857481030788,127.013873912414,디아레나서초,320000.0,29.08
37.497519425,126.99378830567,반포에스케이뷰,26000.0,204.81
37.4857131040687,127.032128521297,한라비발디스튜디오193,285000.0,19.99
37.4941335729758,127.026244690732,삼성서초가든스위트,350000.0,164.36
37.4917159490777,126.995839100832,롯데캐슬포레스트,79000.0,239.33
37.4948090872401,126.999219848705,몽마르뜨빌(577-3),305000.0,76.56
37.4831095760729,127.016112094844,현대슈퍼빌,300000.0,205.67
37.4966039826299,126.999187035528,현대반포빌라트B,130000.0,242.92
37.4987792309782,126.992555092161,더샵반포리버파크,349000.0,49.55
37.5039449145147,127.011487795747,삼호가든맨션(5차),90000.0,142.11
37.476042208376,126.987328623343,방배홈타운(479-11),250000.0,87.51
37.491226519264,126.995766532938,방배아크빌,29700.0,197.91
37.4939600245321,127.02788124423,서초동삼성쉐르빌2,152000.0,35.22
37.4863719512747,126.998206950604,방배CJ나인빌1차,30000.0,137.3
37.4942413218619,127.017558868696,서초대우아이빌,65000.0,35.307
37.4842029075172,127.0099658463,서초한신리빙타워,190000.0,42.55
37.4910698691349,127.008573434175,현대ESA2,190000.0,136.25
37.5133614318662,127.007870630856,한신그린,89500.0,84.89
37.4883729782646,127.031087248864,서초아파트,117000.0,71.515
37.4614498491198,127.026490636114,서초네이처힐6단지,296500.0,59.99
37.4929501918622,126.994666629385,레베빌2,169000.0,244.44
37.5157784982649,127.009830461695,신반포27,145000.0,53.46
37.4947012764203,126.99646235425,반포이안애1차,148000.0,164.41
37.4865782974292,127.006495044753,N-Suite(1513-2),22000.0,112.35
37.456461265481,127.016236805991,우솔마을서초리슈빌S아파트,159000.0,21.5893
37.4755134242576,126.990392554222,방배아트e편한세상101,174500.0,108.98
37.4838215241376,127.014232764398,경남아너스빌201동,148000.0,84.95
37.4845085867573,127.024429323611,신원아침도시(1420),114500.0,84.34
37.4905493309105,126.991073151709,방배씨티(보성),170000.0,74.16
37.4951789437519,126.998510253102,서래아르드빌,242000.0,189.86
37.4968632788293,127.019673378411,서초롯데캐슬프레지던트,220000.0,84.97
37.4914815401111,126.983722711076,방배3차현대홈타운,104000.0,122.961
37.487368895953,127.008485607649,서초화원그랑빌,87000.0,78.94
37.4859631593784,126.983883108811,방배마에스트로,328000.0,29.28
37.4904382105408,127.026114605116,신동아아파트(2차),190000.0,166.1
37.4923122176703,126.995354302244,그랑씨엘2000,410000.0,185.11
37.4961072207181,126.992791476291,UPPERHOUSE,29500.0,241.1
37.486044022746,126.984200927218,방배대우디오빌,42000.0,28.84
37.511393465753,127.018355538452,대우아이빌,230000.0,27.07
37.4818637506308,127.009455511665,더샾오데움(103동),262000.0,171.036
37.4877318512286,126.998893033687,대림e-편한세상1,141000.0,164.25
37.4844573026826,127.036686699024,한솔로이젠트,174000.0,84.65
37.4903010272878,127.005812507168,마제스타시티(101/102동),217000.0,59.97
37.4758936320383,126.994275772907,방배2차상지리츠빌,173000.0,163.48
37.501494353202,127.010587661338,쏠레뉴,29400.0,115.92
37.4904159174489,127.029708691543,풍림아이원플러스,190000.0,27.643
37.5084937857408,127.00872031075,데뜨아르,123000.0,84.99
37.4948993905998,127.018899948268,삼환바우스,140000.0,84.98
37.4907942927284,126.995411951808,선영베스트,90000.0,96.66
37.4752438993177,126.993983695297,명지해드는터,118000.0,104.16
37.4713573571914,127.023567246461,동고,111000.0,77.14
37.492562249085,127.017259609396,서초녹원,173000.0,59.78
37.4810577829466,126.994603934445,방배서리풀힐스,235000.0,128.11
37.4939161302279,126.996182969497,월드빌라트(798-5),174000.0,201.71
37.4864751870072,126.984440769325,신구하이텍빌리지,213000.0,204.69
37.5135810818378,127.009313034047,한신로얄,147000.0,81.23
37.4776670632433,126.982230881975,SK리더스뷰(파스텔시티),45000.0,84.97
37.4846980245878,127.016967219084,래미안서초유니빌,280000.0,45.255
37.5201839405441,127.016436120872,롯데캐슬갤럭시,137500.0,106.15
37.4808506552996,127.00507258384,삼환나띠르빌(1002-21),157000.0,92.93
37.5175257870567,127.011153696382,미주파스텔,330000.0,59.76
37.510142453918,127.011729885178,신반포20,125000.0,143.95
37.4936766368467,127.017718970978,서초예성그린캐슬,297500.0,105.49
37.4921492413041,127.023903060191,신동아아파트(1차),140000.0,132.1
37.4774980484964,127.029061759823,우성KBS(113동),185000.0,84.69
37.4969407304439,126.984306628076,롯데캐슬헤론,186000.0,103.7
37.4761624410026,127.0015983531,현대맨션,83000.0,205.35
37.4701126060206,127.048428070616,우면파크아파트,229000.0,68.12
37.5168904458979,127.00959872159,신반포16,204000.0,52.32
37.474408252473,126.982576685314,방배우성,282500.0,117.19
37.4951763080247,126.988366427362,현대멤피스,230000.0,158.82
37.5096658802026,127.015178357709,노블레스,200000.0,152.01
37.4805581664357,127.007215283144,래미안서초3차,125000.0,180.27
37.4618187813328,127.023216339641,서초네이처힐7단지,44000.0,59.99
37.4912693593418,126.989304550236,한신트리플,390500.0,39.31
37.5037787055864,126.993632959636,래미안원펜타스,198000.0,107.8965
37.5109273892114,127.00598738482,한신타워,171000.0,59.4
37.4921752200774,126.99269370264,리치팰리스,116000.0,135.11
37.4919393425261,126.996942950674,프리우스,195000.0,75.32
37.4873431995077,127.017002756115,서초동롯데캐슬리버티,102800.0,125.79
37.4804349408425,127.039716326517,현대타운,195000.0,84.11
37.4859817857307,126.983063697492,방배디오슈페리움Ⅰ,524000.0,130.14
37.5076756920378,127.002785569445,반포르엘,204750.0,121.6097
37.5192140645955,127.01465768356,훼미리,268000.0,84.9
37.4864307068107,126.999051801992,방배자이,103000.0,194.92
37.4840538398065,127.017337815445,서초쌍용플래티넘,94000.0,72.47
37.5013619590358,127.009970501373,반포두산힐스빌,390000.0,47.7
37.5083456928314,127.002135030427,반포르엘2차,240000.0,84.1269
37.4977805897597,126.984542802634,방배아크로리버,155000.0,149.225
37.5003963928922,127.00208413965,현대동궁아파트,313000.0,70.38
37.5150940804763,127.008886788333,한신진일빌라트,320000.0,148.93
37.5142169397105,127.0101708343,신반포19,329000.0,107.01
37.4942905588855,126.991987305661,방배3차e-편한세상,132000.0,202.4635
37.5079460828217,127.017491502846,반포훼미리(102동),308000.0,71.88
37.503308876091,127.016250677845,반포센트레빌아스테리움,146000.0,88.932
37.4636072574097,127.019939449084,서초네이처힐1단지,106000.0,84.73
37.4715308560823,127.025890636987,한라,130000.0,59.98
37.4913999380591,126.995115088547,빌라도르,320000.0,108.84
37.5186915147491,127.013638163526,래미안신반포리오센트,114500.0,84.92
37.4589691364304,127.02504854353,엘에이치서초5단지(토지임대부아파트),135000.0,84.95
37.4499353185746,127.055830373775,서초포레스타6단지,124500.0,59.98
37.4628058563393,127.021707420516,서초네이처힐2단지,153000.0,59.99
37.4854295104624,127.026505319429,동원베네스트아파트,125000.0,84.9
37.4909886298679,127.020165979795,서초현대,153000.0,54.45
37.4520000205529,127.063784257656,서초더샵포레,148000.0,84.6
37.4727023921114,126.984007935896,삼성래미안1,119000.0,84.91
37.4848933132557,126.998726188903,방배한화,102000.0,84.7
37.4937873123565,127.01810324382,서초태동스위트,20400.0,82.94
37.4815557644342,127.013402121701,서초중흥S-클래스(도시형생활주택),320000.0,22.37
37.4964514257034,126.993134427797,프레스턴클레식,191000.0,215.06
37.486791104159,126.995143203806,브라운스톤방배,198000.0,84.96
37.4786540816366,127.006913688918,서초금호어울림,140000.0,146.13
37.4807175482481,126.988218298807,네스코뮤즈빌(A),295000.0,132.74
37.5101374243916,127.008362411803,신반포자이,185000.0,59.86
37.4955244019972,126.993526344813,상지리츠빌8차,299000.0,125.84
37.5148511348749,127.009339999417,신반포25,260000.0,84.49
37.4901824020429,126.983902781945,방배2차현대홈타운,142000.0,147.26
37.4991035542235,127.000884124091,한신서래,182000.0,45.72
37.4860809127443,126.99749869562,방배 서리풀 그랑블,130000.0,84.979
37.5028475707668,127.024544206976,강남태영데시앙루브,205000.0,84.43
37.4965159189109,126.98742875016,삼호2,177500.0,132.39
37.4795610823521,126.993898555084,대우(효령),266000.0,84.91
37.4971392783097,126.989738752313,방배신삼호,130000.0,105.04
37.4879076313243,127.016070384299,티에스프리우스,260000.0,108.34
37.5213183876092,127.015130604916,한강,210000.0,84.53
37.4862635029913,127.008975184076,서초2차e-편한세상,202000.0,116.745
37.4962996549334,127.018265560432,유원서초,135000.0,84.87
37.4685018570084,127.044566190097,새티스,129000.0,116.79
37.4887809280773,127.022925943302,극동스타클래스2,465000.0,59.97
37.5068638149098,127.001841493789,반포센트럴자이,260000.0,98.87
37.4753126139541,127.001127810863,방배신동아럭스빌,440000.0,164.43
37.5127631523761,127.024435362754,네오빌,20000.0,128.26
37.4972022435021,127.033626056947,EGSoulLeader,258000.0,17.03
37.519102968535,127.054998864484,현대삼성동1차,148500.0,159.69
37.5187805017392,127.037506973191,논현한가람빌라트,69000.0,90.94
37.5054258769138,127.030050878243,리치타워,460000.0,89.83
37.5267894920706,127.047123529284,호원빌라,570000.0,244.49
37.4873667125871,127.043435268637,이니그마빌-III,222500.0,240.55
37.5157085537793,127.062722690782,래미안삼성1차(105-0),138000.0,84.95
37.5207335482485,127.019970477869,신사아이빌(522),520000.0,84.93
37.5323773404776,127.030654534135,현대4차저층(51~56동),240000.0,117.9
37.512317772077,127.051829796699,쌍용플래티넘,100000.0,152.25
37.5029713491309,127.055465304112,메트로,212000.0,99.26
37.5131210964197,127.047796305276,삼성동롯데캐슬킹덤,377000.0,148.5
37.4873363055886,127.052829715042,타워팰리스3,16500.0,141.381
37.4985278449522,127.033482351829,이스턴오피스텔,125000.0,14.78
37.5124618505028,127.02312286754,힐타워,33300.0,134.83
37.5109601739313,127.043966510489,호산프라자,750000.0,33.6
37.5178477454338,127.064673139738,아펠바움,215000.0,241.83
37.5214034379514,127.045390847073,청담2차이-편한세상(201동/202동/203동),101000.0,112.5
37.4642296169066,127.100502534024,강남신동아파밀리에1단지,21000.0,59.88
37.5017733495083,127.043956825565,진넥스빌2,203500.0,23.85
37.5159924090308,127.046227665295,삼성동중앙하이츠빌리지,80000.0,59.92
37.512471958099,127.032274587099,논현아트빌,260000.0,84.84
37.5280726571191,127.049858623247,목화,61000.0,133.97
37.4960922578169,127.037344317485,노블스위트,280000.0,78.94
37.5154203230155,127.051131434251,삼성동센트럴아이파크,17000.0,84.99
37.4975384590489,127.039302102273,요진와이시티미니,275000.0,12.1
37.4845150908032,127.054173895409,경남2차,30000.0,182.2
37.5033699161172,127.050528902579,아름빌(889-74),165000.0,30.46
37.5135472434716,127.0387752587,두산위브1단지,22900.0,84.914
37.5192545057793,127.047329530423,청담스위트,155500.0,13.425
37.5016112250429,127.054813227126,풍림아이원아파트,118000.0,84.87
37.4641692046074,127.102754461114,강남신동아파밀리에2단지,89000.0,84.98
37.4746248714865,127.055195184196,포이벨리,151500.0,84.69
37.5167880498618,127.04468074369,현대아파트101동,152500.0,59.83
37.5202894417201,127.032215511612,청학아파트에이동 비동/씨동,102000.0,97.18
37.4973338083861,127.039398457032,프리마빌,245000.0,102.79
37.5004909218409,127.045687600172,강남센트럴아이파크,122000.0,59.994
37.4637801386237,127.104409778342,세곡리엔파크(3단지),245500.0,84.96
37.488763972925,127.035099794789,하이페리온,273000.0,184.31
37.4962962191107,127.07662539762,개포자이,212000.0,134.3
37.5171348025177,127.063972792252,래미안삼성1차(103-22),92000.0,84.96
37.4930015908398,127.039117102179,강남서해그랑블,135000.0,71.26
37.5135186704047,127.034141126794,논현동월드메르디앙,189000.0,84.9914
37.4814556635509,127.053098618368,개포2차현대아파트(220),67000.0,77.75
37.5228845147707,127.049194525559,청담디에브스아파트,205000.0,56.89
37.4820202153818,127.07784941621,한솔마을,141000.0,84.73
37.5127472718024,127.032722616686,논현베르빌,650000.0,111.36
37.5330267381014,127.027925536556,현대1차(12/13/21/22/31/32/33동),199000.0,161.18
37.5237583258264,127.02630076733,현대아인빌,120000.0,138.42
37.4973092755439,127.04283692356,세방하이빌1,740000.0,59.77
37.5209364627791,127.050461900821,청담어퍼하우스,20800.0,197.73
37.5097162486159,127.033523881412,한양수자인어반게이트,246000.0,16.2
37.4865168979792,127.051882861207,우성캐릭터199,120000.0,164.97
37.4970094227833,127.037248199515,동원스위트뷰역삼,147000.0,84.83
37.4869926495587,127.044310213881,필로스(193-45),710000.0,128.33
37.5309077439444,127.036865226776,한양4,87500.0,208.65
37.504315177562,127.052555769681,대치동우정에쉐르2(890-42),200500.0,68.59
37.5205048036403,127.047836421504,청담대림이-편한세상,19700.0,81.84
37.4984060977465,127.032263556578,강남역우정에쉐르,290000.0,17.13
37.4975707864425,127.060116831654,삼성3차,102102.0,144.09
37.4873312853508,127.060656112764,대치푸르지오발라드,74000.0,41.3882
37.4748196766062,127.054793428818,뉴현대파크빌,196000.0,69.86
37.5125350078397,127.038369354075,두산위브2단지,427000.0,106.829
37.5310921175756,127.02507354803,"현대10차(201,202동)",190000.0,108.15
37.4975959883919,127.055761232217,삼환SOGOOD,214000.0,105.6
37.5274686878192,127.037226006238,압구정대원칸타빌아파트,79200.0,113.31
37.5045442768978,127.054209061273,대치동우정에쉐르1,322000.0,59.75
37.4845150908032,127.054173895409,경남1,224000.0,123.28
37.4878922787897,127.060955866212,현대아파트3,270000.0,84.87
37.5002337297672,127.069139134413,대치우성아파트1동/2동/3동/5동/6동/7동,335000.0,84.69
37.4994725764941,127.070483284674,쌍용대치2,315000.0,120.76
37.5130548831322,127.054629761687,포스코트,127500.0,154.24
37.5137285590121,127.023644470738,지고하임(102동),250000.0,77.61
37.4877223725379,127.04596985023,도곡현대힐스테이트101동,115000.0,171.58
37.4676629031825,127.105382016412,강남한신휴플러스6단지,310000.0,59.98
37.4839732673555,127.056013870468,개포우성3차,380000.0,133.46
37.519506404602,127.051680474161,현대아파트(75-1),218000.0,159.08
37.5201299348955,127.019620549974,래미안신사,125300.0,84.89
37.4922201536402,127.030884285386,역삼디오슈페리움,172000.0,84.34
37.4878521403159,127.040226925461,한신엠비씨,95000.0,58.46
37.4726114960743,127.09099181045,강남브리즈힐(토지임대부아파트),81000.0,74.04
37.4963043323795,127.030170484473,역삼동우정에쉐르1,195000.0,71.78
37.5262376734318,127.031908660952,신성아파트101동,470000.0,84.9
37.5306250782443,127.026136755454,현대14차(203/204/205/206동),282000.0,84.94
37.489845156745,127.037810239458,도곡3차아이파크,293000.0,155.97
37.5252422082027,127.055217748136,청담아이파크,550000.0,110.14
37.5253062054352,127.020094666653,미성1차,167000.0,153.35
37.485322064615,127.096512817155,동익,163000.0,84.46
37.5173889752862,127.045503680429,삼성동한솔아파트,730000.0,58.57
37.5275560033999,127.024419823616,신현대11차,160000.0,171.43
37.518529686768,127.051129370461,삼성리치빌1,220000.0,84.98
37.4922748332904,127.043511837517,도곡1차아이파크,31700.0,84.122
37.5019559669632,127.044242152066,한화진넥스빌,231000.0,34.82
37.4965001990472,127.048147354094,래미안그레이튼,480000.0,59.97
37.5319760183273,127.028563016169,현대5차(71/72동),310000.0,82.23
37.4891822395753,127.03710217951,도곡2차I'PARK,138000.0,198.13
37.4747811588395,127.110118808878,래미안포레,205000.0,59.97
37.5236003613447,127.057196116303,청담자이,285000.0,49.593
37.4879799725392,127.038115610038,도곡쌍용예가,120000.0,207.52
37.4602885503743,127.101185384316,강남데시앙파크,795000.0,84.95
37.5299339057353,127.028904583335,현대6차(78~81/83/84/86/87동),182500.0,196.7
37.4894700896084,127.103575874815,수서한아름,405000.0,97.63
37.4854426682653,127.049473550969,우성4,31800.0,152.74
37.5061683570162,127.050928670633,LG선릉에클라트(B),171000.0,36.35
37.488966366098,127.039576448741,현대그린1,648000.0,84.93
37.5299339057353,127.028904583335,현대7차(73~77/82/85동),500000.0,144.2
37.530233501672,127.027336644402,현대13차(208~211동),185000.0,105.31
37.4962677274195,127.046375405001,대림역삼,250000.0,84.96
37.5192760188687,127.045549395083,한신오페라하우스,159500.0,134.91
37.4667907761882,127.10286961908,강남엘에이치1단지,500000.0,84.83
37.5262225982289,127.024479347433,신현대9차,490000.0,109.24
37.5015805244455,127.068102983477,상지리츠빌카일룸(1009-4),42000.0,178.17
37.4873620167241,127.05132532941,현대비젼21,239000.0,32.65
37.492293011204,127.078327089075,우성7,149000.0,83.69
37.5138589096778,127.051485875359,현대힐스테이트2단지,500000.0,40.763
37.4921265332679,127.062565123948,선경2차(8동-12동),39800.0,160.76
37.513885429675,127.028885611445,마일스디오빌,370000.0,36.29
37.4980831440783,127.071219190993,쌍용대치아파트1동/2동/3동/5동/6동,347800.0,128.03
37.4886726430993,127.052102242886,아카데미스위트1,33000.0,164.87
37.511079918093,127.107588087644,트윈레이크팰리스빌,49200.0,28.11
37.5054397723377,127.133176617735,아키스,62000.0,67.04
37.5005567998813,127.125670617691,동성아파트(103동),103000.0,64.46
37.4926161372875,127.145535704066,쌍용스윗닷홈2차,73000.0,105.24
37.5031423497842,127.138539086559,더뷰21,75000.0,54.943
37.4965864755518,127.143650828382,삼호아파트,90000.0,59.79
37.5094277135415,127.13261083194,노블레스카운티,63800.0,93.9
37.4823841440595,127.128083466112,아름빌,195000.0,84.23
37.5107193382697,127.106990711098,현대레이크빌1,92500.0,199.23
37.4922127278545,127.13173988294,가락현대투웰브(101동),70000.0,105.02
37.4973275584586,127.152488295965,기영,55000.0,81.94
37.4837386943699,127.125419478778,동부화이트빌(2동),95000.0,60.4
37.4989573942833,127.159109968729,송파파크데일1단지,56000.0,84.13
37.503795020598,127.113561504945,위례캐스빌,79000.0,83.9
37.5339527351465,127.115163582362,케이앤피상상,109000.0,84.95
37.4933265240858,127.13184587235,프라임레지던스,48500.0,164.98
37.5015568225654,127.141000089844,영풍,63000.0,59.76
37.5108294262359,127.125838382486,인택스빌3차,115000.0,83.85
37.5028765892116,127.126120548077,가락스타클래스,183000.0,119.27
37.5122259244197,127.124788709575,현대월드빌리지,38000.0,215.13
37.4969195585746,127.133049757986,대련,72500.0,40.97
37.4999354756416,127.125661999401,동일씨티빌,163800.0,84.9
37.4761769981712,127.141966372049,위례아이파크,50000.0,100.7848
37.5106725423398,127.127869722774,에스아이팰리스송파올림픽공원,69000.0,24.26
37.483453380793,127.124790136514,자이파인빌(101동),78000.0,83.04
37.5135090985659,127.11716972473,주함위너스Ⅰ,53000.0,94.62
37.5033259407648,127.13933391501,그랑밸리(119-27),87500.0,52.09
37.4966373023742,127.135167216256,삼성프라자,150000.0,131.29
37.5065938808967,127.131800437553,쌍용스윗닷홈(401동),130000.0,156.81
37.5036559625718,127.080469557067,신동아예지움,79500.0,132.12
37.4955836328269,127.12640738707,풍림1,45000.0,59.94
37.5129893170972,127.116067002754,올림픽포레다움아파트,123000.0,31.93
37.5036153078471,127.104643124891,잠실한솔,83900.0,59.88
37.5015472034017,127.132898622527,반석블레스빌,160000.0,83.15
37.5109540323281,127.123018404767,현대홈타운스위트104,175000.0,148.68
37.5156004401146,127.116874149536,도무스빌,139000.0,136.71
37.4983700057373,127.122461386155,쌍용스윗닷홈(105동),63500.0,122.43
37.5149227018459,127.114485862279,올림픽카운티,135000.0,56.22
37.4791614582283,127.130760269638,송파파인타운7단지,138000.0,84.93
37.5102884076822,127.127737073867,올림픽파크센트레빌,125000.0,84.6819
37.5079145900696,127.131056402872,쌍용스윗닷홈1단지,110000.0,84.94
37.4937946759827,127.128586141162,가락미륭아파트,74000.0,64.26
37.5005978050329,127.087515997037,하이파크아파트,151500.0,51.2
37.4770932742337,127.12863360586,송파파인타운13단지,72500.0,84.9
37.5351465385321,127.112570039664,갑을,188000.0,59.4
37.5001404027447,127.117028504575,성지,141500.0,84.92
37.4818027649899,127.129615143735,송파파인타운4단지,159500.0,84.95
37.4763891035863,127.143451849849,송파와이즈더샵,80000.0,97.0736
37.4924747909177,127.126752350781,프라임,125000.0,84.4
37.5103541961903,127.107151025491,호수임광,107825.0,84.87
37.5113607362582,127.108795565498,레이크해모로,130000.0,84.73
37.4902488856659,127.146222224424,거여2단지효성아파트,123000.0,134.88
37.5101208078855,127.121252375875,디벨라지오,128000.0,84.864
37.4980866240558,127.117418049464,예일,110000.0,253.59
37.4969461596459,127.133589672664,현대7,72800.0,84.65
37.5334340791187,127.118213379345,대아(제101상가동),65000.0,60.0
37.5075799994489,127.121053732434,인택스빌,38000.0,61.2
37.5154956256603,127.114510830541,동광팰리스,73500.0,25.27
37.5064032944963,127.132546557216,매그놀리아(1차),230000.0,80.09
37.5169785483722,127.102280367857,잠실더샵스타파크,77000.0,157.08
37.5035084220692,127.115593611568,한양파크뷰,92500.0,84.28
37.5299446017313,127.117119628887,송파해모로아파트,182000.0,59.93
37.5180031106649,127.104406664149,더샵스타리버,115000.0,142.17
37.4870067579324,127.134811444444,송파파인타운1단지,110000.0,84.95
37.5321396358538,127.116830825559,현대리버빌2지구,51200.0,84.97
37.5156366783812,127.110586019553,신동아타워,336000.0,50.4
37.5144542739603,127.1007349885,롯데캐슬골드,106000.0,187.65
37.4871169853133,127.133272419016,문정대우푸르지오3차,133000.0,84.96
37.509967110419,127.123930330826,현대빌라(208-19),102000.0,173.55
37.5147668372164,127.118944719091,올림픽베어스타운1,177000.0,84.24
37.5056922024259,127.114095713741,한양아파트,70000.0,137.28
37.485667884485,127.125888204464,현대(62-5),74200.0,54.6
37.5004694231276,127.112700940354,송파,128400.0,83.22
37.4977102251011,127.123475143395,가락3차쌍용스윗닷홈101동/102동,108000.0,84.82
37.4972264609487,127.12262360564,현대(6차),134000.0,84.8
37.4915680488385,127.128143359737,문정가락현대1차,132000.0,84.98
37.5133482722678,127.123015774076,태평양파크1,183000.0,147.41
37.5151554474997,127.102500711247,현대타워,80000.0,189.77
37.4985808929098,127.153226704084,마천대성,123000.0,59.62
37.4868780773275,127.128105384944,문정대우푸르지오1차,97000.0,84.86
37.4982408539268,127.154815784388,마천금호어울림1차아파트,136500.0,80.88
37.4957810716091,127.158847774957,송파파크데일2단지,110000.0,114.91
37.5113032156046,127.078768611685,잠실월드메르디앙,70000.0,59.23
37.5275036704203,127.128746364399,집앤사비키아파트,12000.0,72.06
37.535052839071,127.137267314239,강동렘브란트,52000.0,15.86
37.5388234399032,127.13864976801,광남아파트102동,100500.0,74.13
37.5532422593823,127.154778066661,명일진로,80000.0,118.44
37.5269261388506,127.134714798864,파크프라자,50000.0,97.53
37.5489166169071,127.14257655923,평대보민아파트,62000.0,72.0
37.5293441815342,127.132059371146,태천,58000.0,83.91
37.5419213548346,127.142576702485,태솔,75000.0,67.08
37.5344726540348,127.134633220155,한솔애리즈601동,83000.0,84.63
